{
"type": "FeatureCollection",
"name": "Subway_stations_0521_NameEn",
"crs": { "type": "name", "properties": { "name": "urn:ogc:def:crs:OGC:1.3:CRS84" } },
"features": [
{ "type": "Feature", "properties": { "station": "东莞火车站", "line": "2号线", "address": "2号线", "x": 113.860186, "y": 23.088625, "wgs84_x": 113.8552083, "wgs84_y": 23.0914598, "city": "dongguan", "time": 2016, "name_en": "Dongguan train station", "name_en_2": null, "station_fanti": null }, "geometry": { "type": "Point", "coordinates": [ 113.8552083, 23.0914598 ] } },
{ "type": "Feature", "properties": { "station": "茶山", "line": "2号线", "address": "2号线", "x": 113.844382, "y": 23.079532, "wgs84_x": 113.8393644, "wgs84_y": 23.08234304, "city": "dongguan", "time": 2016, "name_en": "cha shan ", "name_en_2": null, "station_fanti": null }, "geometry": { "type": "Point", "coordinates": [ 113.8393644, 23.08234304 ] } },
{ "type": "Feature", "properties": { "station": "榴花公园", "line": "2号线", "address": "2号线", "x": 113.814234, "y": 23.080269, "wgs84_x": 113.8091357, "wgs84_y": 23.08302356, "city": "dongguan", "time": 2016, "name_en": "liu hua gong yuan ", "name_en_2": null, "station_fanti": null }, "geometry": { "type": "Point", "coordinates": [ 113.8091357, 23.08302356 ] } },
{ "type": "Feature", "properties": { "station": "下桥", "line": "2号线", "address": "2号线", "x": 113.788305, "y": 23.062821, "wgs84_x": 113.7831494, "wgs84_y": 23.06554416, "city": "dongguan", "time": 2016, "name_en": "xia qiao ", "name_en_2": null, "station_fanti": null }, "geometry": { "type": "Point", "coordinates": [ 113.7831494, 23.06554416 ] } },
{ "type": "Feature", "properties": { "station": "天宝", "line": "2号线", "address": "2号线", "x": 113.778679, "y": 23.047321, "wgs84_x": 113.773508, "wgs84_y": 23.05004102, "city": "dongguan", "time": 2016, "name_en": "tian bao ", "name_en_2": null, "station_fanti": null }, "geometry": { "type": "Point", "coordinates": [ 113.773508, 23.05004102 ] } },
{ "type": "Feature", "properties": { "station": "东城", "line": "2号线", "address": "2号线", "x": 113.776406, "y": 23.032659, "wgs84_x": 113.7712326, "wgs84_y": 23.03538347, "city": "dongguan", "time": 2016, "name_en": "dong cheng ", "name_en_2": null, "station_fanti": null }, "geometry": { "type": "Point", "coordinates": [ 113.7712326, 23.03538347 ] } },
{ "type": "Feature", "properties": { "station": "旗峰公园", "line": "2号线", "address": "2号线", "x": 113.767706, "y": 23.019953, "wgs84_x": 113.7625223, "wgs84_y": 23.02267754, "city": "dongguan", "time": 2016, "name_en": "qi feng gong yuan ", "name_en_2": null, "station_fanti": null }, "geometry": { "type": "Point", "coordinates": [ 113.7625223, 23.02267754 ] } },
{ "type": "Feature", "properties": { "station": "鸿福路", "line": "2号线", "address": "(在建)1号线;2号线", "x": 113.759166, "y": 23.010374, "wgs84_x": 113.753975, "wgs84_y": 23.01310008, "city": "dongguan", "time": 2016, "name_en": "hong fu lu ", "name_en_2": null, "station_fanti": null }, "geometry": { "type": "Point", "coordinates": [ 113.753975, 23.01310008 ] } },
{ "type": "Feature", "properties": { "station": "西平", "line": "2号线", "address": "2号线", "x": 113.746895, "y": 22.993905, "wgs84_x": 113.7416991, "wgs84_y": 22.9966393, "city": "dongguan", "time": 2016, "name_en": "xi ping ", "name_en_2": null, "station_fanti": null }, "geometry": { "type": "Point", "coordinates": [ 113.7416991, 22.9966393 ] } },
{ "type": "Feature", "properties": { "station": "蛤地", "line": "2号线", "address": "2号线", "x": 113.728913, "y": 22.978074, "wgs84_x": 113.7237205, "wgs84_y": 22.9808268, "city": "dongguan", "time": 2016, "name_en": "ge di ", "name_en_2": null, "station_fanti": null }, "geometry": { "type": "Point", "coordinates": [ 113.7237205, 22.9808268 ] } },
{ "type": "Feature", "properties": { "station": "陈屋", "line": "2号线", "address": "2号线", "x": 113.690221, "y": 22.957699, "wgs84_x": 113.6850706, "wgs84_y": 22.96051757, "city": "dongguan", "time": 2016, "name_en": "chen wu ", "name_en_2": null, "station_fanti": null }, "geometry": { "type": "Point", "coordinates": [ 113.6850706, 22.96051757 ] } },
{ "type": "Feature", "properties": { "station": "寮厦", "line": "2号线", "address": "2号线", "x": 113.67361, "y": 22.940975, "wgs84_x": 113.6684862, "wgs84_y": 22.94383205, "city": "dongguan", "time": 2016, "name_en": "Liaoxia", "name_en_2": null, "station_fanti": null }, "geometry": { "type": "Point", "coordinates": [ 113.6684862, 22.94383205 ] } },
{ "type": "Feature", "properties": { "station": "珊美", "line": "2号线", "address": "2号线", "x": 113.664219, "y": 22.926212, "wgs84_x": 113.6591106, "wgs84_y": 22.92909292, "city": "dongguan", "time": 2016, "name_en": "shan mei ", "name_en_2": null, "station_fanti": null }, "geometry": { "type": "Point", "coordinates": [ 113.6591106, 22.92909292 ] } },
{ "type": "Feature", "properties": { "station": "展览中心", "line": "2号线", "address": "2号线", "x": 113.661569, "y": 22.902386, "wgs84_x": 113.6564662, "wgs84_y": 22.90528169, "city": "dongguan", "time": 2016, "name_en": "zhan lan zhong xin ", "name_en_2": null, "station_fanti": null }, "geometry": { "type": "Point", "coordinates": [ 113.6564662, 22.90528169 ] } },
{ "type": "Feature", "properties": { "station": "虎门火车站", "line": "2号线", "address": "2号线", "x": 113.671654, "y": 22.859341, "wgs84_x": 113.6665386, "wgs84_y": 22.86223525, "city": "dongguan", "time": 2016, "name_en": "hu men huo che zhan ", "name_en_2": null, "station_fanti": null }, "geometry": { "type": "Point", "coordinates": [ 113.6665386, 22.86223525 ] } },
{ "type": "Feature", "properties": { "station": "金融高新区", "line": "广佛线", "address": "广佛线", "x": 113.158548, "y": 23.065814, "wgs84_x": 113.1531034, "wgs84_y": 23.06839137, "city": "foshan", "time": 2010, "name_en": "jin rong gao xin qu ", "name_en_2": null, "station_fanti": null }, "geometry": { "type": "Point", "coordinates": [ 113.1531034, 23.06839137 ] } },
{ "type": "Feature", "properties": { "station": "千灯湖", "line": "广佛线", "address": "广佛线", "x": 113.155356, "y": 23.054818, "wgs84_x": 113.1499067, "wgs84_y": 23.05739452, "city": "foshan", "time": 2010, "name_en": "qian deng hu ", "name_en_2": null, "station_fanti": null }, "geometry": { "type": "Point", "coordinates": [ 113.1499067, 23.05739452 ] } },
{ "type": "Feature", "properties": { "station": "礌岗", "line": "广佛线", "address": "广佛线", "x": 113.155426, "y": 23.042607, "wgs84_x": 113.1499777, "wgs84_y": 23.04518887, "city": "foshan", "time": 2010, "name_en": "chu gang ", "name_en_2": null, "station_fanti": null }, "geometry": { "type": "Point", "coordinates": [ 113.1499777, 23.04518887 ] } },
{ "type": "Feature", "properties": { "station": "南桂路", "line": "广佛线", "address": "广佛线", "x": 113.154139, "y": 23.034167, "wgs84_x": 113.1486892, "wgs84_y": 23.03675031, "city": "foshan", "time": 2010, "name_en": "nan gui lu ", "name_en_2": null, "station_fanti": null }, "geometry": { "type": "Point", "coordinates": [ 113.1486892, 23.03675031 ] } },
{ "type": "Feature", "properties": { "station": "桂城", "line": "广佛线", "address": "(在建)3号线;广佛线", "x": 113.141432, "y": 23.031674, "wgs84_x": 113.1359636, "wgs84_y": 23.03423868, "city": "foshan", "time": 2010, "name_en": "gui cheng ", "name_en_2": null, "station_fanti": null }, "geometry": { "type": "Point", "coordinates": [ 113.1359636, 23.03423868 ] } },
{ "type": "Feature", "properties": { "station": "朝安", "line": "广佛线", "address": "广佛线", "x": 113.133537, "y": 23.027676, "wgs84_x": 113.1280596, "wgs84_y": 23.03023227, "city": "foshan", "time": 2010, "name_en": "chao an ", "name_en_2": null, "station_fanti": null }, "geometry": { "type": "Point", "coordinates": [ 113.1280596, 23.03023227 ] } },
{ "type": "Feature", "properties": { "station": "普君北路", "line": "广佛线", "address": "广佛线", "x": 113.12224, "y": 23.027678, "wgs84_x": 113.1167532, "wgs84_y": 23.03022331, "city": "foshan", "time": 2010, "name_en": "pu jun bei lu ", "name_en_2": null, "station_fanti": null }, "geometry": { "type": "Point", "coordinates": [ 113.1167532, 23.03022331 ] } },
{ "type": "Feature", "properties": { "station": "祖庙", "line": "广佛线", "address": "广佛线", "x": 113.112099, "y": 23.027073, "wgs84_x": 113.1066084, "wgs84_y": 23.0296128, "city": "foshan", "time": 2010, "name_en": "zu miao ", "name_en_2": null, "station_fanti": null }, "geometry": { "type": "Point", "coordinates": [ 113.1066084, 23.0296128 ] } },
{ "type": "Feature", "properties": { "station": "同济路", "line": "广佛线", "address": "广佛线", "x": 113.108503, "y": 23.019222, "wgs84_x": 113.1030126, "wgs84_y": 23.02176415, "city": "foshan", "time": 2010, "name_en": "tong ji lu ", "name_en_2": null, "station_fanti": null }, "geometry": { "type": "Point", "coordinates": [ 113.1030126, 23.02176415 ] } },
{ "type": "Feature", "properties": { "station": "季华园", "line": "广佛线", "address": "广佛线", "x": 113.108547, "y": 23.007104, "wgs84_x": 113.1030574, "wgs84_y": 23.00965139, "city": "foshan", "time": 2010, "name_en": "ji hua yuan ", "name_en_2": null, "station_fanti": null }, "geometry": { "type": "Point", "coordinates": [ 113.1030574, 23.00965139 ] } },
{ "type": "Feature", "properties": { "station": "澜石", "line": "广佛线", "address": "广佛线", "x": 113.107107, "y": 22.983985, "wgs84_x": 113.101619, "wgs84_y": 22.98654211, "city": "foshan", "time": 2016, "name_en": "lan shi ", "name_en_2": null, "station_fanti": null }, "geometry": { "type": "Point", "coordinates": [ 113.101619, 22.98654211 ] } },
{ "type": "Feature", "properties": { "station": "世纪莲", "line": "广佛线", "address": "广佛线", "x": 113.114917, "y": 22.965147, "wgs84_x": 113.1094312, "wgs84_y": 22.96771469, "city": "foshan", "time": 2016, "name_en": "shi ji lian ", "name_en_2": null, "station_fanti": null }, "geometry": { "type": "Point", "coordinates": [ 113.1094312, 22.96771469 ] } },
{ "type": "Feature", "properties": { "station": "新城东", "line": "广佛线", "address": "广佛线", "x": 113.140008, "y": 22.958653, "wgs84_x": 113.1345427, "wgs84_y": 22.96124719, "city": "foshan", "time": 2016, "name_en": "xin cheng dong ", "name_en_2": null, "station_fanti": null }, "geometry": { "type": "Point", "coordinates": [ 113.1345427, 22.96124719 ] } },
{ "type": "Feature", "properties": { "station": "广州东站", "line": "line1", "address": "(在建)11号线内环;(在建)11号线外环;(在建)18号线;1号线;3号线北延段", "x": 113.324851, "y": 23.150968, "wgs84_x": 113.319437, "wgs84_y": 23.15356053, "city": "guangzhou", "time": 1999, "name_en": "guang zhou dong zhan ", "name_en_2": null, "station_fanti": null }, "geometry": { "type": "Point", "coordinates": [ 113.318622894400661, 23.152834097311366 ] } },
{ "type": "Feature", "properties": { "station": "体育中心", "line": "line1", "address": "1号线", "x": 113.328376, "y": 23.13497, "wgs84_x": 113.3229559, "wgs84_y": 23.13756218, "city": "guangzhou", "time": 1999, "name_en": "ti yu zhong xin ", "name_en_2": null, "station_fanti": null }, "geometry": { "type": "Point", "coordinates": [ 113.322830652984706, 23.136447481563991 ] } },
{ "type": "Feature", "properties": { "station": "体育西路", "line": "line1", "address": "1号线;3号线;3号线北延段", "x": 113.321503, "y": 23.131138, "wgs84_x": 113.3160971, "wgs84_y": 23.13374459, "city": "guangzhou", "time": 1999, "name_en": "ti yu xi lu ", "name_en_2": null, "station_fanti": null }, "geometry": { "type": "Point", "coordinates": [ 113.3160971, 23.13374459 ] } },
{ "type": "Feature", "properties": { "station": "杨箕", "line": "line1", "address": "1号线;5号线", "x": 113.308877, "y": 23.128137, "wgs84_x": 113.3034957, "wgs84_y": 23.13076715, "city": "guangzhou", "time": 1999, "name_en": "yang ji ", "name_en_2": null, "station_fanti": null }, "geometry": { "type": "Point", "coordinates": [ 113.3034957, 23.13076715 ] } },
{ "type": "Feature", "properties": { "station": "东山口", "line": "line1", "address": "1号线;6号线", "x": 113.295373, "y": 23.12398, "wgs84_x": 113.2900148, "wgs84_y": 23.12663251, "city": "guangzhou", "time": 1999, "name_en": "dong shan kou ", "name_en_2": null, "station_fanti": null }, "geometry": { "type": "Point", "coordinates": [ 113.2900148, 23.12663251 ] } },
{ "type": "Feature", "properties": { "station": "烈士陵园", "line": "line1", "address": "(在建)12号线;1号线", "x": 113.285663, "y": 23.126704, "wgs84_x": 113.2803181, "wgs84_y": 23.1293674, "city": "guangzhou", "time": 1999, "name_en": "lie shi ling yuan ", "name_en_2": null, "station_fanti": null }, "geometry": { "type": "Point", "coordinates": [ 113.2803181, 23.1293674 ] } },
{ "type": "Feature", "properties": { "station": "农讲所", "line": "line1", "address": "1号线", "x": 113.275602, "y": 23.126623, "wgs84_x": 113.2702678, "wgs84_y": 23.12929575, "city": "guangzhou", "time": 1999, "name_en": "nong jiang suo ", "name_en_2": null, "station_fanti": null }, "geometry": { "type": "Point", "coordinates": [ 113.2702678, 23.12929575 ] } },
{ "type": "Feature", "properties": { "station": "公园前", "line": "line1", "address": "1号线;2号线", "x": 113.264315, "y": 23.125446, "wgs84_x": 113.2589885, "wgs84_y": 23.12812548, "city": "guangzhou", "time": 1999, "name_en": "gong yuan qian ", "name_en_2": null, "station_fanti": null }, "geometry": { "type": "Point", "coordinates": [ 113.2589885, 23.12812548 ] } },
{ "type": "Feature", "properties": { "station": "西门口", "line": "line1", "address": "1号线", "x": 113.25583, "y": 23.125219, "wgs84_x": 113.250506, "wgs84_y": 23.12790016, "city": "guangzhou", "time": 1999, "name_en": "xi men kou ", "name_en_2": null, "station_fanti": null }, "geometry": { "type": "Point", "coordinates": [ 113.250506, 23.12790016 ] } },
{ "type": "Feature", "properties": { "station": "陈家祠", "line": "line1", "address": "(在建)8号线北延线;1号线", "x": 113.246439, "y": 23.125727, "wgs84_x": 113.2411144, "wgs84_y": 23.12840653, "city": "guangzhou", "time": 1999, "name_en": "chen jia ci", "name_en_2": null, "station_fanti": null }, "geometry": { "type": "Point", "coordinates": [ 113.2411144, 23.12840653 ] } },
{ "type": "Feature", "properties": { "station": "长寿路", "line": "line1", "address": "1号线", "x": 113.242271, "y": 23.118402, "wgs84_x": 113.2369455, "wgs84_y": 23.1210828, "city": "guangzhou", "time": 1999, "name_en": "chang shou lu ", "name_en_2": null, "station_fanti": null }, "geometry": { "type": "Point", "coordinates": [ 113.2369455, 23.1210828 ] } },
{ "type": "Feature", "properties": { "station": "黄沙", "line": "line1", "address": "1号线;6号线", "x": 113.239856, "y": 23.110524, "wgs84_x": 113.2345299, "wgs84_y": 23.11320674, "city": "guangzhou", "time": 1997, "name_en": "huang sha ", "name_en_2": null, "station_fanti": null }, "geometry": { "type": "Point", "coordinates": [ 113.2345299, 23.11320674 ] } },
{ "type": "Feature", "properties": { "station": "芳村", "line": "line1", "address": "(在建)11号线内环;(在建)11号线外环;1号线", "x": 113.235703, "y": 23.098592, "wgs84_x": 113.2303753, "wgs84_y": 23.10127697, "city": "guangzhou", "time": 1997, "name_en": "fang cun ", "name_en_2": null, "station_fanti": null }, "geometry": { "type": "Point", "coordinates": [ 113.2303753, 23.10127697 ] } },
{ "type": "Feature", "properties": { "station": "花地湾", "line": "line1", "address": "1号线", "x": 113.23403, "y": 23.087055, "wgs84_x": 113.2287019, "wgs84_y": 23.08974352, "city": "guangzhou", "time": 1997, "name_en": "hua di wan ", "name_en_2": null, "station_fanti": null }, "geometry": { "type": "Point", "coordinates": [ 113.2287019, 23.08974352 ] } },
{ "type": "Feature", "properties": { "station": "坑口", "line": "line1", "address": "1号线", "x": 113.232498, "y": 23.078878, "wgs84_x": 113.2271693, "wgs84_y": 23.08156871, "city": "guangzhou", "time": 1997, "name_en": "keng kou ", "name_en_2": "Hang Hau", "station_fanti": "坑口" }, "geometry": { "type": "Point", "coordinates": [ 113.2271693, 23.08156871 ] } },
{ "type": "Feature", "properties": { "station": "西塱", "line": "line1", "address": "(在建)10号线;(在建)22号线;1号线;广佛线", "x": 113.231978, "y": 23.065437, "wgs84_x": 113.2266498, "wgs84_y": 23.06813296, "city": "guangzhou", "time": 1997, "name_en": "Xilang", "name_en_2": null, "station_fanti": null }, "geometry": { "type": "Point", "coordinates": [ 113.226389577356485, 23.068881100100104 ] } },
{ "type": "Feature", "properties": { "station": "广州南站", "line": "line2", "address": "(在建)22号线;(在建)2号线一期;(在建)7号线西延顺德段;2号线;7号线", "x": 113.269125, "y": 22.98898, "wgs84_x": 113.263805, "wgs84_y": 22.99171512, "city": "guangzhou", "time": 2010, "name_en": "guang zhou nan zhan ", "name_en_2": null, "station_fanti": null }, "geometry": { "type": "Point", "coordinates": [ 113.261728900008066, 22.989978708692018 ] } },
{ "type": "Feature", "properties": { "station": "石壁", "line": "line2", "address": "2号线;7号线", "x": 113.277964, "y": 22.994136, "wgs84_x": 113.2726365, "wgs84_y": 22.99686285, "city": "guangzhou", "time": 2010, "name_en": "shi bi ", "name_en_2": null, "station_fanti": null }, "geometry": { "type": "Point", "coordinates": [ 113.2726365, 22.99686285 ] } },
{ "type": "Feature", "properties": { "station": "会江", "line": "line2", "address": "2号线", "x": 113.286394, "y": 23.013047, "wgs84_x": 113.2810558, "wgs84_y": 23.01575744, "city": "guangzhou", "time": 2010, "name_en": "hui jiang ", "name_en_2": null, "station_fanti": null }, "geometry": { "type": "Point", "coordinates": [ 113.2810558, 23.01575744 ] } },
{ "type": "Feature", "properties": { "station": "南浦", "line": "line2", "address": "2号线", "x": 113.293154, "y": 23.032929, "wgs84_x": 113.2878053, "wgs84_y": 23.03562267, "city": "guangzhou", "time": 2010, "name_en": "nan pu ", "name_en_2": null, "station_fanti": null }, "geometry": { "type": "Point", "coordinates": [ 113.2878053, 23.03562267 ] } },
{ "type": "Feature", "properties": { "station": "洛溪", "line": "line2", "address": "2号线", "x": 113.298665, "y": 23.042896, "wgs84_x": 113.2933071, "wgs84_y": 23.04557776, "city": "guangzhou", "time": 2010, "name_en": "luo xi ", "name_en_2": null, "station_fanti": null }, "geometry": { "type": "Point", "coordinates": [ 113.2933071, 23.04557776 ] } },
{ "type": "Feature", "properties": { "station": "南洲", "line": "line2", "address": "2号线;广佛线", "x": 113.297367, "y": 23.064799, "wgs84_x": 113.2920097, "wgs84_y": 23.06747328, "city": "guangzhou", "time": 2010, "name_en": "nan zhou ", "name_en_2": null, "station_fanti": null }, "geometry": { "type": "Point", "coordinates": [ 113.2920097, 23.06747328 ] } },
{ "type": "Feature", "properties": { "station": "东晓南", "line": "line2", "address": "(在建)10号线;2号线", "x": 113.294174, "y": 23.071333, "wgs84_x": 113.2888212, "wgs84_y": 23.07400892, "city": "guangzhou", "time": 2010, "name_en": "dong xiao nan ", "name_en_2": null, "station_fanti": null }, "geometry": { "type": "Point", "coordinates": [ 113.2888212, 23.07400892 ] } },
{ "type": "Feature", "properties": { "station": "江泰路", "line": "line2", "address": "(在建)11号线内环;(在建)11号线外环;2号线", "x": 113.28057, "y": 23.082231, "wgs84_x": 113.275234, "wgs84_y": 23.08491783, "city": "guangzhou", "time": 2010, "name_en": "jiang tai lu ", "name_en_2": null, "station_fanti": null }, "geometry": { "type": "Point", "coordinates": [ 113.275234, 23.08491783 ] } },
{ "type": "Feature", "properties": { "station": "昌岗", "line": "line2", "address": "2号线;8号线", "x": 113.276885, "y": 23.090654, "wgs84_x": 113.2715521, "wgs84_y": 23.09334049, "city": "guangzhou", "time": 2010, "name_en": "chang gang ", "name_en_2": null, "station_fanti": null }, "geometry": { "type": "Point", "coordinates": [ 113.2715521, 23.09334049 ] } },
{ "type": "Feature", "properties": { "station": "江南西", "line": "line2", "address": "2号线", "x": 113.273918, "y": 23.097214, "wgs84_x": 113.2685872, "wgs84_y": 23.09989999, "city": "guangzhou", "time": 2002, "name_en": "jiang nan xi ", "name_en_2": null, "station_fanti": null }, "geometry": { "type": "Point", "coordinates": [ 113.2685872, 23.09989999 ] } },
{ "type": "Feature", "properties": { "station": "市二宫", "line": "line2", "address": "2号线", "x": 113.26989, "y": 23.105996, "wgs84_x": 113.2645617, "wgs84_y": 23.10868088, "city": "guangzhou", "time": 2002, "name_en": "shi dong gong ", "name_en_2": null, "station_fanti": null }, "geometry": { "type": "Point", "coordinates": [ 113.2645617, 23.10868088 ] } },
{ "type": "Feature", "properties": { "station": "海珠广场", "line": "line2", "address": "2号线;6号线", "x": 113.265344, "y": 23.114796, "wgs84_x": 113.2600177, "wgs84_y": 23.11747941, "city": "guangzhou", "time": 2002, "name_en": "hai zhu guang chang ", "name_en_2": null, "station_fanti": null }, "geometry": { "type": "Point", "coordinates": [ 113.26018498598512, 23.117372532842843 ] } },
{ "type": "Feature", "properties": { "station": "纪念堂", "line": "line2", "address": "(在建)13号线二期;2号线", "x": 113.263431, "y": 23.132179, "wgs84_x": 113.2581045, "wgs84_y": 23.13485607, "city": "guangzhou", "time": 2002, "name_en": "ji nian tang ", "name_en_2": null, "station_fanti": null }, "geometry": { "type": "Point", "coordinates": [ 113.2581045, 23.13485607 ] } },
{ "type": "Feature", "properties": { "station": "越秀公园", "line": "line2", "address": "2号线", "x": 113.261366, "y": 23.140041, "wgs84_x": 113.2560397, "wgs84_y": 23.14271552, "city": "guangzhou", "time": 2002, "name_en": "yue xiu gong yuan ", "name_en_2": null, "station_fanti": null }, "geometry": { "type": "Point", "coordinates": [ 113.2560397, 23.14271552 ] } },
{ "type": "Feature", "properties": { "station": "广州火车站", "line": "line2", "address": "(在建)11号线内环;(在建)11号线外环;(在建)14号线二期;2号线;5号线", "x": 113.256603, "y": 23.148143, "wgs84_x": 113.2512774, "wgs84_y": 23.15081503, "city": "guangzhou", "time": 2002, "name_en": "guang zhou huo che zhan ", "name_en_2": null, "station_fanti": null }, "geometry": { "type": "Point", "coordinates": [ 113.2512774, 23.15081503 ] } },
{ "type": "Feature", "properties": { "station": "三元里", "line": "line2", "address": "2号线", "x": 113.256851, "y": 23.159402, "wgs84_x": 113.2515246, "wgs84_y": 23.16206965, "city": "guangzhou", "time": 2002, "name_en": "san yuan li ", "name_en_2": null, "station_fanti": null }, "geometry": { "type": "Point", "coordinates": [ 113.2515246, 23.16206965 ] } },
{ "type": "Feature", "properties": { "station": "飞翔公园", "line": "line2", "address": "2号线", "x": 113.263752, "y": 23.168915, "wgs84_x": 113.2584229, "wgs84_y": 23.17157766, "city": "guangzhou", "time": 2010, "name_en": "fei xiang gong yuan ", "name_en_2": null, "station_fanti": null }, "geometry": { "type": "Point", "coordinates": [ 113.2584229, 23.17157766 ] } },
{ "type": "Feature", "properties": { "station": "白云公园", "line": "line2", "address": "2号线", "x": 113.270966, "y": 23.181613, "wgs84_x": 113.2656319, "wgs84_y": 23.18426759, "city": "guangzhou", "time": 2010, "name_en": "bai yun gong yuan ", "name_en_2": null, "station_fanti": null }, "geometry": { "type": "Point", "coordinates": [ 113.2656319, 23.18426759 ] } },
{ "type": "Feature", "properties": { "station": "白云文化广场", "line": "line2", "address": "(在建)12号线;2号线", "x": 113.275602, "y": 23.189574, "wgs84_x": 113.2702636, "wgs84_y": 23.19222254, "city": "guangzhou", "time": 2010, "name_en": "bai yun wen hua guang chang ", "name_en_2": null, "station_fanti": null }, "geometry": { "type": "Point", "coordinates": [ 113.2702636, 23.19222254 ] } },
{ "type": "Feature", "properties": { "station": "萧岗", "line": "line2", "address": "2号线", "x": 113.280697, "y": 23.19858, "wgs84_x": 113.275353, "wgs84_y": 23.20122098, "city": "guangzhou", "time": 2010, "name_en": "xiao gang ", "name_en_2": null, "station_fanti": null }, "geometry": { "type": "Point", "coordinates": [ 113.275353, 23.20122098 ] } },
{ "type": "Feature", "properties": { "station": "江夏", "line": "line2", "address": "2号线", "x": 113.283451, "y": 23.211301, "wgs84_x": 113.2781031, "wgs84_y": 23.2139348, "city": "guangzhou", "time": 2010, "name_en": "jiang xia ", "name_en_2": null, "station_fanti": null }, "geometry": { "type": "Point", "coordinates": [ 113.2781031, 23.2139348 ] } },
{ "type": "Feature", "properties": { "station": "黄边", "line": "line2", "address": "2号线", "x": 113.287376, "y": 23.221645, "wgs84_x": 113.2820226, "wgs84_y": 23.22427099, "city": "guangzhou", "time": 2010, "name_en": "huang bian ", "name_en_2": null, "station_fanti": null }, "geometry": { "type": "Point", "coordinates": [ 113.2820226, 23.22427099 ] } },
{ "type": "Feature", "properties": { "station": "嘉禾望岗", "line": "line2", "address": "(在建)14号线二期;14号线;2号线;3号线北延段", "x": 113.289243, "y": 23.23746, "wgs84_x": 113.283886, "wgs84_y": 23.24007851, "city": "guangzhou", "time": 2010, "name_en": "jia he wang gang ", "name_en_2": null, "station_fanti": null }, "geometry": { "type": "Point", "coordinates": [ 113.283886, 23.24007851 ] } },
{ "type": "Feature", "properties": { "station": "天河客运站", "line": "line3", "address": "(在建)10号线;3号线;6号线", "x": 113.3436, "y": 23.171, "wgs84_x": 113.3381463, "wgs84_y": 23.17354935, "city": "guangzhou", "time": 2006, "name_en": "tian he ke yun zhan ", "name_en_2": null, "station_fanti": null }, "geometry": { "type": "Point", "coordinates": [ 113.3381463, 23.17354935 ] } },
{ "type": "Feature", "properties": { "station": "五山", "line": "line3", "address": "(在建)10号线;3号线", "x": 113.351812, "y": 23.152833, "wgs84_x": 113.3463436, "wgs84_y": 23.15537433, "city": "guangzhou", "time": 2006, "name_en": "wu shan ", "name_en_2": null, "station_fanti": null }, "geometry": { "type": "Point", "coordinates": [ 113.3463436, 23.15537433 ] } },
{ "type": "Feature", "properties": { "station": "华师", "line": "line3", "address": "(在建)10号线;(在建)11号线内环;(在建)11号线外环;3号线", "x": 113.34533, "y": 23.14029, "wgs84_x": 113.339875, "wgs84_y": 23.14284801, "city": "guangzhou", "time": 2006, "name_en": "hua shi ", "name_en_2": null, "station_fanti": null }, "geometry": { "type": "Point", "coordinates": [ 113.339875, 23.14284801 ] } },
{ "type": "Feature", "properties": { "station": "岗顶", "line": "line3", "address": "(在建)10号线;3号线", "x": 113.339601, "y": 23.13488, "wgs84_x": 113.3341579, "wgs84_y": 23.13745088, "city": "guangzhou", "time": 2006, "name_en": "gang ding ", "name_en_2": null, "station_fanti": null }, "geometry": { "type": "Point", "coordinates": [ 113.3341579, 23.13745088 ] } },
{ "type": "Feature", "properties": { "station": "石牌桥", "line": "line3", "address": "(在建)10号线;3号线", "x": 113.332124, "y": 23.133135, "wgs84_x": 113.3266963, "wgs84_y": 23.13572079, "city": "guangzhou", "time": 2006, "name_en": "shi pai qiao ", "name_en_2": null, "station_fanti": null }, "geometry": { "type": "Point", "coordinates": [ 113.3266963, 23.13572079 ] } },
{ "type": "Feature", "properties": { "station": "体育西路", "line": "line3", "address": "1号线;3号线;3号线北延段", "x": 113.321503, "y": 23.131138, "wgs84_x": 113.3160971, "wgs84_y": 23.13374459, "city": "guangzhou", "time": 2005, "name_en": "ti yu xi lu ", "name_en_2": null, "station_fanti": null }, "geometry": { "type": "Point", "coordinates": [ 113.3160971, 23.13374459 ] } },
{ "type": "Feature", "properties": { "station": "珠江新城", "line": "line3", "address": "3号线;5号线", "x": 113.321206, "y": 23.119293, "wgs84_x": 113.3158015, "wgs84_y": 23.12190491, "city": "guangzhou", "time": 2005, "name_en": "zhu jiang xin cheng ", "name_en_2": null, "station_fanti": null }, "geometry": { "type": "Point", "coordinates": [ 113.3158015, 23.12190491 ] } },
{ "type": "Feature", "properties": { "station": "广州塔", "line": "line3", "address": "3号线;APM线", "x": 113.323618, "y": 23.106375, "wgs84_x": 113.3182095, "wgs84_y": 23.10898771, "city": "guangzhou", "time": 2005, "name_en": "guang zhou ta ", "name_en_2": null, "station_fanti": null }, "geometry": { "type": "Point", "coordinates": [ 113.3182095, 23.10898771 ] } },
{ "type": "Feature", "properties": { "station": "大塘", "line": "line3", "address": "(在建)11号线内环;(在建)11号线外环;3号线", "x": 113.321677, "y": 23.077974, "wgs84_x": 113.3162743, "wgs84_y": 23.08060213, "city": "guangzhou", "time": 2006, "name_en": "da tang ", "name_en_2": null, "station_fanti": null }, "geometry": { "type": "Point", "coordinates": [ 113.3162743, 23.08060213 ] } },
{ "type": "Feature", "properties": { "station": "沥滘", "line": "line3", "address": "3号线;广佛线", "x": 113.319077, "y": 23.054898, "wgs84_x": 113.3136811, "wgs84_y": 23.05754069, "city": "guangzhou", "time": 2006, "name_en": "Lijiao", "name_en_2": null, "station_fanti": null }, "geometry": { "type": "Point", "coordinates": [ 113.3136811, 23.05754069 ] } },
{ "type": "Feature", "properties": { "station": "厦滘", "line": "line3", "address": "3号线", "x": 113.320837, "y": 23.038007, "wgs84_x": 113.3154387, "wgs84_y": 23.0406537, "city": "guangzhou", "time": 2006, "name_en": "xiajiao", "name_en_2": null, "station_fanti": null }, "geometry": { "type": "Point", "coordinates": [ 113.3154387, 23.0406537 ] } },
{ "type": "Feature", "properties": { "station": "大石", "line": "line3", "address": "3号线", "x": 113.321744, "y": 23.017761, "wgs84_x": 113.3163452, "wgs84_y": 23.02041474, "city": "guangzhou", "time": 2006, "name_en": "da shi ", "name_en_2": null, "station_fanti": null }, "geometry": { "type": "Point", "coordinates": [ 113.3163452, 23.02041474 ] } },
{ "type": "Feature", "properties": { "station": "汉溪长隆", "line": "line3", "address": "3号线;7号线", "x": 113.33017, "y": 22.992931, "wgs84_x": 113.3247558, "wgs84_y": 22.99557962, "city": "guangzhou", "time": 2006, "name_en": "han xi chang long ", "name_en_2": null, "station_fanti": null }, "geometry": { "type": "Point", "coordinates": [ 113.3237799650868, 22.996133754825699 ] } },
{ "type": "Feature", "properties": { "station": "市桥", "line": "line3", "address": "3号线", "x": 113.361726, "y": 22.949743, "wgs84_x": 113.3562536, "wgs84_y": 22.95235298, "city": "guangzhou", "time": 2006, "name_en": "shi qiao ", "name_en_2": null, "station_fanti": null }, "geometry": { "type": "Point", "coordinates": [ 113.3562536, 22.95235298 ] } },
{ "type": "Feature", "properties": { "station": "机场北(2号航站楼)", "line": "line3_北沿线", "address": "3号线北延段", "x": 113.305659, "y": 23.396197, "wgs84_x": 113.3002654, "wgs84_y": 23.39875269, "city": "guangzhou", "time": 2018, "name_en": "Airport north (terminal 2)", "name_en_2": null, "station_fanti": null }, "geometry": { "type": "Point", "coordinates": [ 113.3002654, 23.39875269 ] } },
{ "type": "Feature", "properties": { "station": "机场南(1号航站楼)", "line": "line3_北沿线", "address": "3号线北延段", "x": 113.303097, "y": 23.38669, "wgs84_x": 113.2977085, "wgs84_y": 23.38925134, "city": "guangzhou", "time": 2010, "name_en": "Airport terminal (1)", "name_en_2": null, "station_fanti": null }, "geometry": { "type": "Point", "coordinates": [ 113.2977085, 23.38925134 ] } },
{ "type": "Feature", "properties": { "station": "高增", "line": "line3_北沿线", "address": "3号线北延段;9号线", "x": 113.295504, "y": 23.355162, "wgs84_x": 113.29013, "wgs84_y": 23.35774052, "city": "guangzhou", "time": 2010, "name_en": "gao zeng ", "name_en_2": null, "station_fanti": null }, "geometry": { "type": "Point", "coordinates": [ 113.29013, 23.35774052 ] } },
{ "type": "Feature", "properties": { "station": "人和", "line": "line3_北沿线", "address": "3号线北延段", "x": 113.295995, "y": 23.335224, "wgs84_x": 113.2906216, "wgs84_y": 23.33780624, "city": "guangzhou", "time": 2010, "name_en": "ren he ", "name_en_2": null, "station_fanti": null }, "geometry": { "type": "Point", "coordinates": [ 113.2906216, 23.33780624 ] } },
{ "type": "Feature", "properties": { "station": "龙归", "line": "line3_北沿线", "address": "3号线北延段", "x": 113.300834, "y": 23.288736, "wgs84_x": 113.295456, "wgs84_y": 23.29132315, "city": "guangzhou", "time": 2010, "name_en": "long gui ", "name_en_2": null, "station_fanti": null }, "geometry": { "type": "Point", "coordinates": [ 113.295456, 23.29132315 ] } },
{ "type": "Feature", "properties": { "station": "白云大道北", "line": "line3_北沿线", "address": "3号线北延段", "x": 113.298178, "y": 23.222382, "wgs84_x": 113.2928088, "wgs84_y": 23.22499372, "city": "guangzhou", "time": 2010, "name_en": "Baiyun avenue north", "name_en_2": null, "station_fanti": null }, "geometry": { "type": "Point", "coordinates": [ 113.2928088, 23.22499372 ] } },
{ "type": "Feature", "properties": { "station": "永泰", "line": "line3_北沿线", "address": "3号线北延段", "x": 113.306295, "y": 23.220226, "wgs84_x": 113.3009122, "wgs84_y": 23.22282597, "city": "guangzhou", "time": 2010, "name_en": "yong tai ", "name_en_2": null, "station_fanti": null }, "geometry": { "type": "Point", "coordinates": [ 113.3009122, 23.22282597 ] } },
{ "type": "Feature", "properties": { "station": "同和", "line": "line3_北沿线", "address": "3号线北延段", "x": 113.326264, "y": 23.19706, "wgs84_x": 113.320844, "wgs84_y": 23.19963259, "city": "guangzhou", "time": 2010, "name_en": "tong he ", "name_en_2": null, "station_fanti": null }, "geometry": { "type": "Point", "coordinates": [ 113.320844, 23.19963259 ] } },
{ "type": "Feature", "properties": { "station": "京溪南方医院", "line": "line3_北沿线", "address": "3号线北延段", "x": 113.326126, "y": 23.185225, "wgs84_x": 113.3207071, "wgs84_y": 23.18780215, "city": "guangzhou", "time": 2010, "name_en": "jing xi nan fang hospital", "name_en_2": null, "station_fanti": null }, "geometry": { "type": "Point", "coordinates": [ 113.3207071, 23.18780215 ] } },
{ "type": "Feature", "properties": { "station": "梅花园", "line": "line3_北沿线", "address": "3号线北延段", "x": 113.320507, "y": 23.175211, "wgs84_x": 113.3151001, "wgs84_y": 23.17780234, "city": "guangzhou", "time": 2010, "name_en": "mei hua yuan ", "name_en_2": null, "station_fanti": null }, "geometry": { "type": "Point", "coordinates": [ 113.3151001, 23.17780234 ] } },
{ "type": "Feature", "properties": { "station": "燕塘", "line": "line3_北沿线", "address": "3号线北延段;6号线", "x": 113.327132, "y": 23.15998, "wgs84_x": 113.3217127, "wgs84_y": 23.16256475, "city": "guangzhou", "time": 2010, "name_en": "yan tang ", "name_en_2": null, "station_fanti": null }, "geometry": { "type": "Point", "coordinates": [ 113.3217127, 23.16256475 ] } },
{ "type": "Feature", "properties": { "station": "林和西", "line": "line3_北沿线", "address": "3号线北延段;APM线", "x": 113.323947, "y": 23.141525, "wgs84_x": 113.3185355, "wgs84_y": 23.14412292, "city": "guangzhou", "time": 2005, "name_en": "lin he xi ", "name_en_2": null, "station_fanti": null }, "geometry": { "type": "Point", "coordinates": [ 113.317981272424944, 23.143440074096194 ] } },
{ "type": "Feature", "properties": { "station": "体育西路", "line": "line3_北沿线", "address": "1号线;3号线;3号线北延段", "x": 113.321503, "y": 23.131138, "wgs84_x": 113.3160971, "wgs84_y": 23.13374459, "city": "guangzhou", "time": 2005, "name_en": "ti yu xi lu ", "name_en_2": null, "station_fanti": null }, "geometry": { "type": "Point", "coordinates": [ 113.3160971, 23.13374459 ] } },
{ "type": "Feature", "properties": { "station": "黄村", "line": "line4", "address": "21号线;4号线", "x": 113.407274, "y": 23.131814, "wgs84_x": 113.4017487, "wgs84_y": 23.13430608, "city": "guangzhou", "time": 2010, "name_en": "huang cun ", "name_en_2": null, "station_fanti": null }, "geometry": { "type": "Point", "coordinates": [ 113.4017487, 23.13430608 ] } },
{ "type": "Feature", "properties": { "station": "车陂", "line": "line4", "address": "(在建)13号线二期;4号线", "x": 113.395548, "y": 23.124465, "wgs84_x": 113.3900255, "wgs84_y": 23.12696322, "city": "guangzhou", "time": 2010, "name_en": "chepi", "name_en_2": null, "station_fanti": null }, "geometry": { "type": "Point", "coordinates": [ 113.3900255, 23.12696322 ] } },
{ "type": "Feature", "properties": { "station": "万胜围", "line": "line4", "address": "4号线;8号线", "x": 113.384796, "y": 23.097712, "wgs84_x": 113.3792828, "wgs84_y": 23.10022897, "city": "guangzhou", "time": 2005, "name_en": "wan sheng wei ", "name_en_2": null, "station_fanti": null }, "geometry": { "type": "Point", "coordinates": [ 113.3792828, 23.10022897 ] } },
{ "type": "Feature", "properties": { "station": "官洲", "line": "line4", "address": "(在建)12号线;4号线", "x": 113.376846, "y": 23.066862, "wgs84_x": 113.3713435, "wgs84_y": 23.06940037, "city": "guangzhou", "time": 2005, "name_en": "guan zhou ", "name_en_2": null, "station_fanti": null }, "geometry": { "type": "Point", "coordinates": [ 113.3713435, 23.06940037 ] } },
{ "type": "Feature", "properties": { "station": "大学城北", "line": "line4", "address": "(在建)12号线;4号线", "x": 113.385639, "y": 23.058091, "wgs84_x": 113.3801278, "wgs84_y": 23.06062387, "city": "guangzhou", "time": 2005, "name_en": "da xue cheng bei ", "name_en_2": null, "station_fanti": null }, "geometry": { "type": "Point", "coordinates": [ 113.3801278, 23.06062387 ] } },
{ "type": "Feature", "properties": { "station": "大学城南", "line": "line4", "address": "(在建)12号线;(在建)7号线二期;4号线;7号线", "x": 113.400557, "y": 23.043313, "wgs84_x": 113.3950383, "wgs84_y": 23.04584308, "city": "guangzhou", "time": 2005, "name_en": "da xue cheng nan ", "name_en_2": null, "station_fanti": null }, "geometry": { "type": "Point", "coordinates": [ 113.3950383, 23.04584308 ] } },
{ "type": "Feature", "properties": { "station": "新造", "line": "line4", "address": "4号线", "x": 113.415714, "y": 23.028182, "wgs84_x": 113.4101983, "wgs84_y": 23.03071888, "city": "guangzhou", "time": 2005, "name_en": "xin zao ", "name_en_2": null, "station_fanti": null }, "geometry": { "type": "Point", "coordinates": [ 113.4101983, 23.03071888 ] } },
{ "type": "Feature", "properties": { "station": "官桥", "line": "line4", "address": "4号线", "x": 113.443122, "y": 22.982352, "wgs84_x": 113.4376421, "wgs84_y": 22.98493525, "city": "guangzhou", "time": 2007, "name_en": "guan qiao ", "name_en_2": null, "station_fanti": null }, "geometry": { "type": "Point", "coordinates": [ 113.4376421, 22.98493525 ] } },
{ "type": "Feature", "properties": { "station": "石碁", "line": "line4", "address": "4号线", "x": 113.465225, "y": 22.957185, "wgs84_x": 113.4597983, "wgs84_y": 22.95982313, "city": "guangzhou", "time": 2007, "name_en": "shi chang ", "name_en_2": null, "station_fanti": null }, "geometry": { "type": "Point", "coordinates": [ 113.4597983, 22.95982313 ] } },
{ "type": "Feature", "properties": { "station": "海傍", "line": "line4", "address": "(在建)3号线东延段;4号线", "x": 113.475352, "y": 22.939553, "wgs84_x": 113.4699562, "wgs84_y": 22.9422242, "city": "guangzhou", "time": 2007, "name_en": "hai bang ", "name_en_2": null, "station_fanti": null }, "geometry": { "type": "Point", "coordinates": [ 113.4699562, 22.9422242 ] } },
{ "type": "Feature", "properties": { "station": "低涌", "line": "line4", "address": "4号线", "x": 113.484818, "y": 22.919463, "wgs84_x": 113.4794539, "wgs84_y": 22.9221688, "city": "guangzhou", "time": 2007, "name_en": "di yong ", "name_en_2": null, "station_fanti": null }, "geometry": { "type": "Point", "coordinates": [ 113.4794539, 22.9221688 ] } },
{ "type": "Feature", "properties": { "station": "东涌", "line": "line4", "address": "4号线", "x": 113.478955, "y": 22.885577, "wgs84_x": 113.4735741, "wgs84_y": 22.88828036, "city": "guangzhou", "time": 2007, "name_en": "dong yong ", "name_en_2": "Tung Chung", "station_fanti": "東涌" }, "geometry": { "type": "Point", "coordinates": [ 113.4735741, 22.88828036 ] } },
{ "type": "Feature", "properties": { "station": "庆盛", "line": "line4", "address": "4号线", "x": 113.490456, "y": 22.866999, "wgs84_x": 113.4851143, "wgs84_y": 22.86974254, "city": "guangzhou", "time": 2017, "name_en": "qing sheng ", "name_en_2": null, "station_fanti": null }, "geometry": { "type": "Point", "coordinates": [ 113.4851143, 22.86974254 ] } },
{ "type": "Feature", "properties": { "station": "黄阁汽车城", "line": "line4", "address": "4号线", "x": 113.509719, "y": 22.835812, "wgs84_x": 113.5044466, "wgs84_y": 22.83862546, "city": "guangzhou", "time": 2007, "name_en": "huang ge qi che cheng ", "name_en_2": null, "station_fanti": null }, "geometry": { "type": "Point", "coordinates": [ 113.5044466, 22.83862546 ] } },
{ "type": "Feature", "properties": { "station": "黄阁", "line": "line4", "address": "4号线", "x": 113.518768, "y": 22.824736, "wgs84_x": 113.513528, "wgs84_y": 22.82758068, "city": "guangzhou", "time": 2007, "name_en": "huang ge ", "name_en_2": null, "station_fanti": null }, "geometry": { "type": "Point", "coordinates": [ 113.513528, 22.82758068 ] } },
{ "type": "Feature", "properties": { "station": "蕉门", "line": "line4", "address": "4号线", "x": 113.527502, "y": 22.800704, "wgs84_x": 113.5222934, "wgs84_y": 22.80358263, "city": "guangzhou", "time": 2007, "name_en": "jiao men ", "name_en_2": null, "station_fanti": null }, "geometry": { "type": "Point", "coordinates": [ 113.5222934, 22.80358263 ] } },
{ "type": "Feature", "properties": { "station": "金洲", "line": "line4", "address": "4号线", "x": 113.538886, "y": 22.792178, "wgs84_x": 113.5337145, "wgs84_y": 22.79509037, "city": "guangzhou", "time": 2007, "name_en": "jin zhou ", "name_en_2": null, "station_fanti": null }, "geometry": { "type": "Point", "coordinates": [ 113.5337145, 22.79509037 ] } },
{ "type": "Feature", "properties": { "station": "飞沙角", "line": "line4南延段", "address": "4号线", "x": 113.540758, "y": 22.781854, "wgs84_x": 113.5355929, "wgs84_y": 22.78477466, "city": "guangzhou", "time": 2017, "name_en": "fei sha jiao ", "name_en_2": null, "station_fanti": null }, "geometry": { "type": "Point", "coordinates": [ 113.5355929, 22.78477466 ] } },
{ "type": "Feature", "properties": { "station": "广隆", "line": "line4南延段", "address": "4号线", "x": 113.540728, "y": 22.772143, "wgs84_x": 113.5355634, "wgs84_y": 22.77506683, "city": "guangzhou", "time": 2017, "name_en": "guang long ", "name_en_2": null, "station_fanti": null }, "geometry": { "type": "Point", "coordinates": [ 113.5355634, 22.77506683 ] } },
{ "type": "Feature", "properties": { "station": "大涌", "line": "line4南延段", "address": "4号线", "x": 113.555975, "y": 22.759076, "wgs84_x": 113.5508536, "wgs84_y": 22.76203881, "city": "guangzhou", "time": 2017, "name_en": "da yong ", "name_en_2": null, "station_fanti": null }, "geometry": { "type": "Point", "coordinates": [ 113.5508536, 22.76203881 ] } },
{ "type": "Feature", "properties": { "station": "塘坑", "line": "line4南延段", "address": "4号线", "x": 113.573064, "y": 22.753098, "wgs84_x": 113.56798, "wgs84_y": 22.75609149, "city": "guangzhou", "time": 2017, "name_en": "tang keng ", "name_en_2": null, "station_fanti": null }, "geometry": { "type": "Point", "coordinates": [ 113.56798, 22.75609149 ] } },
{ "type": "Feature", "properties": { "station": "南横", "line": "line4南延段", "address": "4号线", "x": 113.594381, "y": 22.747885, "wgs84_x": 113.5893249, "wgs84_y": 22.75089839, "city": "guangzhou", "time": 2017, "name_en": "nan heng ", "name_en_2": null, "station_fanti": null }, "geometry": { "type": "Point", "coordinates": [ 113.5893249, 22.75089839 ] } },
{ "type": "Feature", "properties": { "station": "南沙客运港", "line": "line4南延段", "address": "4号线", "x": 113.610968, "y": 22.766988, "wgs84_x": 113.6059175, "wgs84_y": 22.7699955, "city": "guangzhou", "time": 2017, "name_en": "nan sha ke yun gang ", "name_en_2": null, "station_fanti": null }, "geometry": { "type": "Point", "coordinates": [ 113.6059175, 22.7699955 ] } },
{ "type": "Feature", "properties": { "station": "滘口", "line": "line5", "address": "5号线", "x": 113.20844, "y": 23.113796, "wgs84_x": 113.2030808, "wgs84_y": 23.11644327, "city": "guangzhou", "time": 2009, "name_en": "Jiaokou ", "name_en_2": null, "station_fanti": null }, "geometry": { "type": "Point", "coordinates": [ 113.2030808, 23.11644327 ] } },
{ "type": "Feature", "properties": { "station": "坦尾", "line": "line5", "address": "5号线;6号线", "x": 113.218387, "y": 23.125234, "wgs84_x": 113.2130408, "wgs84_y": 23.12789063, "city": "guangzhou", "time": 2009, "name_en": "tan wei ", "name_en_2": null, "station_fanti": null }, "geometry": { "type": "Point", "coordinates": [ 113.2130408, 23.12789063 ] } },
{ "type": "Feature", "properties": { "station": "中山八", "line": "line5", "address": "(在建)11号线内环;(在建)11号线外环;5号线", "x": 113.232727, "y": 23.126046, "wgs84_x": 113.2273953, "wgs84_y": 23.12871746, "city": "guangzhou", "time": 2009, "name_en": "zhong shan ba ", "name_en_2": null, "station_fanti": null }, "geometry": { "type": "Point", "coordinates": [ 113.2273953, 23.12871746 ] } },
{ "type": "Feature", "properties": { "station": "西场", "line": "line5", "address": "(在建)13号线二期;5号线", "x": 113.238056, "y": 23.137381, "wgs84_x": 113.2327271, "wgs84_y": 23.14005182, "city": "guangzhou", "time": 2009, "name_en": "xi chang ", "name_en_2": null, "station_fanti": null }, "geometry": { "type": "Point", "coordinates": [ 113.2327271, 23.14005182 ] } },
{ "type": "Feature", "properties": { "station": "西村", "line": "line5", "address": "(在建)8号线北延线;5号线", "x": 113.242019, "y": 23.142012, "wgs84_x": 113.2366918, "wgs84_y": 23.14468323, "city": "guangzhou", "time": 2009, "name_en": "xi cun ", "name_en_2": null, "station_fanti": null }, "geometry": { "type": "Point", "coordinates": [ 113.2366918, 23.14468323 ] } },
{ "type": "Feature", "properties": { "station": "小北", "line": "line5", "address": "5号线", "x": 113.276905, "y": 23.139424, "wgs84_x": 113.2715688, "wgs84_y": 23.14209063, "city": "guangzhou", "time": 2009, "name_en": "xiao bei ", "name_en_2": null, "station_fanti": null }, "geometry": { "type": "Point", "coordinates": [ 113.2715688, 23.14209063 ] } },
{ "type": "Feature", "properties": { "station": "淘金", "line": "line5", "address": "5号线", "x": 113.286549, "y": 23.136365, "wgs84_x": 113.2812024, "wgs84_y": 23.13902356, "city": "guangzhou", "time": 2009, "name_en": "tao jin ", "name_en_2": null, "station_fanti": null }, "geometry": { "type": "Point", "coordinates": [ 113.2812024, 23.13902356 ] } },
{ "type": "Feature", "properties": { "station": "区庄", "line": "line5", "address": "5号线;6号线", "x": 113.296725, "y": 23.134483, "wgs84_x": 113.291364, "wgs84_y": 23.13712942, "city": "guangzhou", "time": 2009, "name_en": "qu zhuang ", "name_en_2": null, "station_fanti": null }, "geometry": { "type": "Point", "coordinates": [ 113.291364, 23.13712942 ] } },
{ "type": "Feature", "properties": { "station": "动物园", "line": "line5", "address": "5号线", "x": 113.307291, "y": 23.134503, "wgs84_x": 113.3019122, "wgs84_y": 23.13713324, "city": "guangzhou", "time": 2009, "name_en": "dong wu yuan ", "name_en_2": null, "station_fanti": null }, "geometry": { "type": "Point", "coordinates": [ 113.3019122, 23.13713324 ] } },
{ "type": "Feature", "properties": { "station": "五羊邨", "line": "line5", "address": "5号线", "x": 113.314249, "y": 23.119843, "wgs84_x": 113.3088582, "wgs84_y": 23.12246726, "city": "guangzhou", "time": 2009, "name_en": "wu yang cun", "name_en_2": null, "station_fanti": null }, "geometry": { "type": "Point", "coordinates": [ 113.3088582, 23.12246726 ] } },
{ "type": "Feature", "properties": { "station": "猎德", "line": "line5", "address": "5号线", "x": 113.332105, "y": 23.118539, "wgs84_x": 113.3266783, "wgs84_y": 23.1211307, "city": "guangzhou", "time": 2009, "name_en": "lie de ", "name_en_2": null, "station_fanti": null }, "geometry": { "type": "Point", "coordinates": [ 113.3266783, 23.1211307 ] } },
{ "type": "Feature", "properties": { "station": "潭村", "line": "line5", "address": "5号线", "x": 113.345949, "y": 23.117366, "wgs84_x": 113.3404943, "wgs84_y": 23.11993205, "city": "guangzhou", "time": 2009, "name_en": "tan cun ", "name_en_2": null, "station_fanti": null }, "geometry": { "type": "Point", "coordinates": [ 113.3404943, 23.11993205 ] } },
{ "type": "Feature", "properties": { "station": "员村", "line": "line5", "address": "(在建)11号线内环;(在建)11号线外环;21号线;5号线", "x": 113.363663, "y": 23.115768, "wgs84_x": 113.3581761, "wgs84_y": 23.11830425, "city": "guangzhou", "time": 2009, "name_en": "yuan cun ", "name_en_2": null, "station_fanti": null }, "geometry": { "type": "Point", "coordinates": [ 113.3581761, 23.11830425 ] } },
{ "type": "Feature", "properties": { "station": "科韵路", "line": "line5", "address": "5号线", "x": 113.377215, "y": 23.11928, "wgs84_x": 113.3717085, "wgs84_y": 23.12179615, "city": "guangzhou", "time": 2009, "name_en": "ke yun lu ", "name_en_2": null, "station_fanti": null }, "geometry": { "type": "Point", "coordinates": [ 113.3717085, 23.12179615 ] } },
{ "type": "Feature", "properties": { "station": "车陂南", "line": "line5", "address": "4号线;5号线", "x": 113.389561, "y": 23.11593, "wgs84_x": 113.3840426, "wgs84_y": 23.11843548, "city": "guangzhou", "time": 2009, "name_en": "che pi nan ", "name_en_2": null, "station_fanti": null }, "geometry": { "type": "Point", "coordinates": [ 113.3840426, 23.11843548 ] } },
{ "type": "Feature", "properties": { "station": "东圃", "line": "line5", "address": "5号线", "x": 113.401562, "y": 23.109392, "wgs84_x": 113.3960385, "wgs84_y": 23.11189399, "city": "guangzhou", "time": 2009, "name_en": "dong pu ", "name_en_2": null, "station_fanti": null }, "geometry": { "type": "Point", "coordinates": [ 113.3960385, 23.11189399 ] } },
{ "type": "Feature", "properties": { "station": "三溪", "line": "line5", "address": "5号线", "x": 113.415784, "y": 23.104098, "wgs84_x": 113.4102631, "wgs84_y": 23.10660277, "city": "guangzhou", "time": 2009, "name_en": "san xi ", "name_en_2": null, "station_fanti": null }, "geometry": { "type": "Point", "coordinates": [ 113.4102631, 23.10660277 ] } },
{ "type": "Feature", "properties": { "station": "鱼珠", "line": "line5", "address": "(在建)13号线二期;13号线;5号线", "x": 113.432261, "y": 23.100431, "wgs84_x": 113.4267556, "wgs84_y": 23.10294931, "city": "guangzhou", "time": 2009, "name_en": "yu zhu ", "name_en_2": null, "station_fanti": null }, "geometry": { "type": "Point", "coordinates": [ 113.4267556, 23.10294931 ] } },
{ "type": "Feature", "properties": { "station": "大沙地", "line": "line5", "address": "5号线", "x": 113.446074, "y": 23.103227, "wgs84_x": 113.4405915, "wgs84_y": 23.10576348, "city": "guangzhou", "time": 2009, "name_en": "da sha di ", "name_en_2": null, "station_fanti": null }, "geometry": { "type": "Point", "coordinates": [ 113.4405915, 23.10576348 ] } },
{ "type": "Feature", "properties": { "station": "大沙东", "line": "line5", "address": "(在建)7号线二期;5号线", "x": 113.458515, "y": 23.106216, "wgs84_x": 113.4530605, "wgs84_y": 23.10877525, "city": "guangzhou", "time": 2009, "name_en": "da sha dong ", "name_en_2": null, "station_fanti": null }, "geometry": { "type": "Point", "coordinates": [ 113.4530605, 23.10877525 ] } },
{ "type": "Feature", "properties": { "station": "文冲", "line": "line5", "address": "(在建)5号线东延段;5号线", "x": 113.469004, "y": 23.103796, "wgs84_x": 113.4635781, "wgs84_y": 23.10638068, "city": "guangzhou", "time": 2009, "name_en": "wen chong ", "name_en_2": null, "station_fanti": null }, "geometry": { "type": "Point", "coordinates": [ 113.4635781, 23.10638068 ] } },
{ "type": "Feature", "properties": { "station": "浔峰岗", "line": "line6", "address": "(在建)12号线;6号线", "x": 113.201941, "y": 23.16411, "wgs84_x": 113.1965681, "wgs84_y": 23.16672698, "city": "guangzhou", "time": 2013, "name_en": "Xunfeng gang ", "name_en_2": null, "station_fanti": null }, "geometry": { "type": "Point", "coordinates": [ 113.1965681, 23.16672698 ] } },
{ "type": "Feature", "properties": { "station": "横沙", "line": "line6", "address": "6号线", "x": 113.206791, "y": 23.158187, "wgs84_x": 113.2014263, "wgs84_y": 23.16081409, "city": "guangzhou", "time": 2013, "name_en": "heng sha ", "name_en_2": null, "station_fanti": null }, "geometry": { "type": "Point", "coordinates": [ 113.2014263, 23.16081409 ] } },
{ "type": "Feature", "properties": { "station": "沙贝", "line": "line6", "address": "6号线", "x": 113.211397, "y": 23.15243, "wgs84_x": 113.2060395, "wgs84_y": 23.15506629, "city": "guangzhou", "time": 2013, "name_en": "sha bei ", "name_en_2": null, "station_fanti": null }, "geometry": { "type": "Point", "coordinates": [ 113.2060395, 23.15506629 ] } },
{ "type": "Feature", "properties": { "station": "河沙", "line": "line6", "address": "6号线", "x": 113.217405, "y": 23.135576, "wgs84_x": 113.2120568, "wgs84_y": 23.13822723, "city": "guangzhou", "time": 2013, "name_en": "he sha ", "name_en_2": null, "station_fanti": null }, "geometry": { "type": "Point", "coordinates": [ 113.2120568, 23.13822723 ] } },
{ "type": "Feature", "properties": { "station": "如意坊", "line": "line6", "address": "(在建)11号线内环;(在建)11号线外环;6号线", "x": 113.231208, "y": 23.114978, "wgs84_x": 113.2258758, "wgs84_y": 23.11765265, "city": "guangzhou", "time": 2013, "name_en": "ru yi fang ", "name_en_2": null, "station_fanti": null }, "geometry": { "type": "Point", "coordinates": [ 113.2258758, 23.11765265 ] } },
{ "type": "Feature", "properties": { "station": "文化公园", "line": "line6", "address": "(在建)8号线北延线;6号线;8号线", "x": 113.248976, "y": 23.109186, "wgs84_x": 113.243653, "wgs84_y": 23.11187297, "city": "guangzhou", "time": 2013, "name_en": "wen hua gong yuan ", "name_en_2": null, "station_fanti": null }, "geometry": { "type": "Point", "coordinates": [ 113.244498417353157, 23.11167570595093 ] } },
{ "type": "Feature", "properties": { "station": "一德路", "line": "line6", "address": "6号线", "x": 113.2572, "y": 23.113036, "wgs84_x": 113.2518766, "wgs84_y": 23.11572203, "city": "guangzhou", "time": 2015, "name_en": "yi de lu ", "name_en_2": null, "station_fanti": null }, "geometry": { "type": "Point", "coordinates": [ 113.2518766, 23.11572203 ] } },
{ "type": "Feature", "properties": { "station": "北京路", "line": "line6", "address": "6号线", "x": 113.270268, "y": 23.11873, "wgs84_x": 113.2649386, "wgs84_y": 23.12140947, "city": "guangzhou", "time": 2013, "name_en": "bei jing lu ", "name_en_2": null, "station_fanti": null }, "geometry": { "type": "Point", "coordinates": [ 113.2649386, 23.12140947 ] } },
{ "type": "Feature", "properties": { "station": "团一大广场", "line": "line6", "address": "6号线", "x": 113.278266, "y": 23.118111, "wgs84_x": 113.2729299, "wgs84_y": 23.12078505, "city": "guangzhou", "time": 2013, "name_en": "tuan yi da guang chang ", "name_en_2": null, "station_fanti": null }, "geometry": { "type": "Point", "coordinates": [ 113.2729299, 23.12078505 ] } },
{ "type": "Feature", "properties": { "station": "东湖", "line": "line6", "address": "(在建)10号线;(在建)12号线;6号线", "x": 113.288583, "y": 23.115102, "wgs84_x": 113.2832352, "wgs84_y": 23.11776678, "city": "guangzhou", "time": 2013, "name_en": "dong hu ", "name_en_2": null, "station_fanti": null }, "geometry": { "type": "Point", "coordinates": [ 113.2832352, 23.11776678 ] } },
{ "type": "Feature", "properties": { "station": "黄花岗", "line": "line6", "address": "6号线", "x": 113.299907, "y": 23.141128, "wgs84_x": 113.2945405, "wgs84_y": 23.14376719, "city": "guangzhou", "time": 2013, "name_en": "huang hua gang ", "name_en_2": null, "station_fanti": null }, "geometry": { "type": "Point", "coordinates": [ 113.2945405, 23.14376719 ] } },
{ "type": "Feature", "properties": { "station": "沙河顶", "line": "line6", "address": "6号线", "x": 113.306967, "y": 23.147276, "wgs84_x": 113.3015879, "wgs84_y": 23.14990173, "city": "guangzhou", "time": 2013, "name_en": "sha he ding ", "name_en_2": null, "station_fanti": null }, "geometry": { "type": "Point", "coordinates": [ 113.3015879, 23.14990173 ] } },
{ "type": "Feature", "properties": { "station": "天平架", "line": "line6", "address": "6号线", "x": 113.321353, "y": 23.159525, "wgs84_x": 113.3159455, "wgs84_y": 23.16212073, "city": "guangzhou", "time": 2013, "name_en": "tian ping jia ", "name_en_2": null, "station_fanti": null }, "geometry": { "type": "Point", "coordinates": [ 113.3159455, 23.16212073 ] } },
{ "type": "Feature", "properties": { "station": "长湴", "line": "line6", "address": "6号线", "x": 113.349435, "y": 23.178502, "wgs84_x": 113.3439694, "wgs84_y": 23.18103781, "city": "guangzhou", "time": 2013, "name_en": "Changban", "name_en_2": null, "station_fanti": null }, "geometry": { "type": "Point", "coordinates": [ 113.3439694, 23.18103781 ] } },
{ "type": "Feature", "properties": { "station": "植物园", "line": "line6", "address": "6号线", "x": 113.365686, "y": 23.190164, "wgs84_x": 113.3601908, "wgs84_y": 23.19266834, "city": "guangzhou", "time": 2017, "name_en": "zhi wu yuan ", "name_en_2": null, "station_fanti": null }, "geometry": { "type": "Point", "coordinates": [ 113.3601908, 23.19266834 ] } },
{ "type": "Feature", "properties": { "station": "龙洞", "line": "line6", "address": "6号线", "x": 113.37752, "y": 23.19096, "wgs84_x": 113.3720082, "wgs84_y": 23.1934481, "city": "guangzhou", "time": 2016, "name_en": "long dong ", "name_en_2": null, "station_fanti": null }, "geometry": { "type": "Point", "coordinates": [ 113.3720082, 23.1934481 ] } },
{ "type": "Feature", "properties": { "station": "柯木塱", "line": "line6", "address": "6号线", "x": 113.395991, "y": 23.193462, "wgs84_x": 113.3904635, "wgs84_y": 23.19593349, "city": "guangzhou", "time": 2017, "name_en": "Kemulang", "name_en_2": null, "station_fanti": null }, "geometry": { "type": "Point", "coordinates": [ 113.3904635, 23.19593349 ] } },
{ "type": "Feature", "properties": { "station": "高塘石", "line": "line6", "address": "6号线", "x": 113.410408, "y": 23.191057, "wgs84_x": 113.4048791, "wgs84_y": 23.19352655, "city": "guangzhou", "time": 2016, "name_en": "gao tang shi ", "name_en_2": null, "station_fanti": null }, "geometry": { "type": "Point", "coordinates": [ 113.4048791, 23.19352655 ] } },
{ "type": "Feature", "properties": { "station": "黄陂", "line": "line6", "address": "6号线", "x": 113.433738, "y": 23.188379, "wgs84_x": 113.4282286, "wgs84_y": 23.1908645, "city": "guangzhou", "time": 2016, "name_en": "huang pi", "name_en_2": null, "station_fanti": null }, "geometry": { "type": "Point", "coordinates": [ 113.4282286, 23.1908645 ] } },
{ "type": "Feature", "properties": { "station": "金峰", "line": "line6", "address": "6号线", "x": 113.451182, "y": 23.181468, "wgs84_x": 113.4457049, "wgs84_y": 23.18398283, "city": "guangzhou", "time": 2016, "name_en": "jin feng ", "name_en_2": null, "station_fanti": null }, "geometry": { "type": "Point", "coordinates": [ 113.4457049, 23.18398283 ] } },
{ "type": "Feature", "properties": { "station": "暹岗", "line": "line6", "address": "6号线", "x": 113.460177, "y": 23.172296, "wgs84_x": 113.4547222, "wgs84_y": 23.17483275, "city": "guangzhou", "time": 2016, "name_en": "Xian gang ", "name_en_2": null, "station_fanti": null }, "geometry": { "type": "Point", "coordinates": [ 113.4547222, 23.17483275 ] } },
{ "type": "Feature", "properties": { "station": "苏元", "line": "line6", "address": "21号线;6号线", "x": 113.468482, "y": 23.17097, "wgs84_x": 113.46305, "wgs84_y": 23.17352676, "city": "guangzhou", "time": 2016, "name_en": "su yuan ", "name_en_2": null, "station_fanti": null }, "geometry": { "type": "Point", "coordinates": [ 113.46305, 23.17352676 ] } },
{ "type": "Feature", "properties": { "station": "萝岗", "line": "line6", "address": "(在建)7号线二期;6号线", "x": 113.481288, "y": 23.175137, "wgs84_x": 113.475895, "wgs84_y": 23.17772601, "city": "guangzhou", "time": 2016, "name_en": "luo gang ", "name_en_2": null, "station_fanti": null }, "geometry": { "type": "Point", "coordinates": [ 113.475895, 23.17772601 ] } },
{ "type": "Feature", "properties": { "station": "香雪", "line": "line6", "address": "6号线", "x": 113.501224, "y": 23.172382, "wgs84_x": 113.4958991, "wgs84_y": 23.17503047, "city": "guangzhou", "time": 2016, "name_en": "xiang xue ", "name_en_2": null, "station_fanti": null }, "geometry": { "type": "Point", "coordinates": [ 113.4958991, 23.17503047 ] } },
{ "type": "Feature", "properties": { "station": "谢村", "line": "line7", "address": "7号线", "x": 113.295832, "y": 22.990579, "wgs84_x": 113.2904821, "wgs84_y": 22.99328734, "city": "guangzhou", "time": 2016, "name_en": "xie cun ", "name_en_2": null, "station_fanti": null }, "geometry": { "type": "Point", "coordinates": [ 113.2904821, 22.99328734 ] } },
{ "type": "Feature", "properties": { "station": "钟村", "line": "line7", "address": "7号线", "x": 113.31698, "y": 22.986437, "wgs84_x": 113.3115928, "wgs84_y": 22.98911297, "city": "guangzhou", "time": 2016, "name_en": "zhong cun ", "name_en_2": null, "station_fanti": null }, "geometry": { "type": "Point", "coordinates": [ 113.3115928, 22.98911297 ] } },
{ "type": "Feature", "properties": { "station": "南村万博", "line": "line7", "address": "(在建)18号线;7号线", "x": 113.347555, "y": 23.004769, "wgs84_x": 113.3421048, "wgs84_y": 23.00737976, "city": "guangzhou", "time": 2016, "name_en": "nan cun wan bo ", "name_en_2": null, "station_fanti": null }, "geometry": { "type": "Point", "coordinates": [ 113.339661727592343, 23.005675534026622 ] } },
{ "type": "Feature", "properties": { "station": "员岗", "line": "line7", "address": "7号线", "x": 113.365641, "y": 23.015962, "wgs84_x": 113.3601577, "wgs84_y": 23.0185374, "city": "guangzhou", "time": 2016, "name_en": "yuan gang ", "name_en_2": null, "station_fanti": null }, "geometry": { "type": "Point", "coordinates": [ 113.3601577, 23.0185374 ] } },
{ "type": "Feature", "properties": { "station": "板桥", "line": "line7", "address": "7号线", "x": 113.388139, "y": 23.016845, "wgs84_x": 113.3826285, "wgs84_y": 23.01939346, "city": "guangzhou", "time": 2016, "name_en": "ban qiao ", "name_en_2": null, "station_fanti": null }, "geometry": { "type": "Point", "coordinates": [ 113.3826285, 23.01939346 ] } },
{ "type": "Feature", "properties": { "station": "琶洲", "line": "line8", "address": "(在建)11号线内环;(在建)11号线外环;8号线", "x": 113.3667, "y": 23.098516, "wgs84_x": 113.3612095, "wgs84_y": 23.10105473, "city": "guangzhou", "time": 2003, "name_en": "pa zhou ", "name_en_2": null, "station_fanti": null }, "geometry": { "type": "Point", "coordinates": [ 113.3612095, 23.10105473 ] } },
{ "type": "Feature", "properties": { "station": "新港东", "line": "line8", "address": "8号线", "x": 113.35701, "y": 23.098722, "wgs84_x": 113.3515357, "wgs84_y": 23.10127606, "city": "guangzhou", "time": 2003, "name_en": "xin gang dong ", "name_en_2": null, "station_fanti": null }, "geometry": { "type": "Point", "coordinates": [ 113.3515357, 23.10127606 ] } },
{ "type": "Feature", "properties": { "station": "磨碟沙", "line": "line8", "address": "8号线", "x": 113.341285, "y": 23.098689, "wgs84_x": 113.3358409, "wgs84_y": 23.10127141, "city": "guangzhou", "time": 2003, "name_en": "mo die sha ", "name_en_2": null, "station_fanti": null }, "geometry": { "type": "Point", "coordinates": [ 113.3358409, 23.10127141 ] } },
{ "type": "Feature", "properties": { "station": "赤岗", "line": "line8", "address": "(在建)12号线;8号线", "x": 113.334825, "y": 23.096432, "wgs84_x": 113.3293942, "wgs84_y": 23.09902759, "city": "guangzhou", "time": 2003, "name_en": "chi gang ", "name_en_2": null, "station_fanti": null }, "geometry": { "type": "Point", "coordinates": [ 113.3293942, 23.09902759 ] } },
{ "type": "Feature", "properties": { "station": "客村", "line": "line8", "address": "3号线;8号线", "x": 113.320331, "y": 23.096197, "wgs84_x": 113.3149298, "wgs84_y": 23.09882, "city": "guangzhou", "time": 2003, "name_en": "ke cun ", "name_en_2": null, "station_fanti": null }, "geometry": { "type": "Point", "coordinates": [ 113.3149298, 23.09882 ] } },
{ "type": "Feature", "properties": { "station": "鹭江", "line": "line8", "address": "8号线", "x": 113.308219, "y": 23.095331, "wgs84_x": 113.3028411, "wgs84_y": 23.09797565, "city": "guangzhou", "time": 2003, "name_en": "Lu jiang ", "name_en_2": null, "station_fanti": null }, "geometry": { "type": "Point", "coordinates": [ 113.3028411, 23.09797565 ] } },
{ "type": "Feature", "properties": { "station": "中大", "line": "line8", "address": "8号线", "x": 113.292863, "y": 23.092124, "wgs84_x": 113.2875107, "wgs84_y": 23.09479293, "city": "guangzhou", "time": 2003, "name_en": "zhong da ", "name_en_2": null, "station_fanti": null }, "geometry": { "type": "Point", "coordinates": [ 113.2875107, 23.09479293 ] } },
{ "type": "Feature", "properties": { "station": "晓港", "line": "line8", "address": "8号线", "x": 113.281883, "y": 23.093066, "wgs84_x": 113.2765448, "wgs84_y": 23.09574706, "city": "guangzhou", "time": 2003, "name_en": "xiao gang ", "name_en_2": null, "station_fanti": null }, "geometry": { "type": "Point", "coordinates": [ 113.2765448, 23.09574706 ] } },
{ "type": "Feature", "properties": { "station": "宝岗大道", "line": "line8", "address": "8号线", "x": 113.2697, "y": 23.086027, "wgs84_x": 113.2643731, "wgs84_y": 23.08872027, "city": "guangzhou", "time": 2010, "name_en": "bao gang da dao ", "name_en_2": null, "station_fanti": null }, "geometry": { "type": "Point", "coordinates": [ 113.2643731, 23.08872027 ] } },
{ "type": "Feature", "properties": { "station": "沙园", "line": "line8", "address": "8号线;广佛线", "x": 113.260584, "y": 23.088625, "wgs84_x": 113.2552614, "wgs84_y": 23.09132063, "city": "guangzhou", "time": 2010, "name_en": "sha yuan ", "name_en_2": null, "station_fanti": null }, "geometry": { "type": "Point", "coordinates": [ 113.2552614, 23.09132063 ] } },
{ "type": "Feature", "properties": { "station": "凤凰新村", "line": "line8", "address": "8号线", "x": 113.255994, "y": 23.094705, "wgs84_x": 113.250672, "wgs84_y": 23.09739865, "city": "guangzhou", "time": 2010, "name_en": "feng huang xin cun ", "name_en_2": null, "station_fanti": null }, "geometry": { "type": "Point", "coordinates": [ 113.250672, 23.09739865 ] } },
{ "type": "Feature", "properties": { "station": "同福西", "line": "line8", "address": "8号线", "x": 113.252372, "y": 23.101689, "wgs84_x": 113.2470498, "wgs84_y": 23.10437962, "city": "guangzhou", "time": 2019, "name_en": "tong fu xi ", "name_en_2": null, "station_fanti": null }, "geometry": { "type": "Point", "coordinates": [ 113.2470498, 23.10437962 ] } },
{ "type": "Feature", "properties": { "station": "飞鹅岭", "line": "line9", "address": "9号线", "x": 113.155127, "y": 23.378345, "wgs84_x": 113.1496553, "wgs84_y": 23.38081393, "city": "guangzhou", "time": 2017, "name_en": "fei dong ling ", "name_en_2": null, "station_fanti": null }, "geometry": { "type": "Point", "coordinates": [ 113.1496553, 23.38081393 ] } },
{ "type": "Feature", "properties": { "station": "花都汽车城", "line": "line9", "address": "9号线", "x": 113.180367, "y": 23.379671, "wgs84_x": 113.1749408, "wgs84_y": 23.38218613, "city": "guangzhou", "time": 2017, "name_en": "hua dong qi che cheng ", "name_en_2": null, "station_fanti": null }, "geometry": { "type": "Point", "coordinates": [ 113.1749408, 23.38218613 ] } },
{ "type": "Feature", "properties": { "station": "广州北站", "line": "line9", "address": "9号线", "x": 113.201568, "y": 23.376419, "wgs84_x": 113.1961801, "wgs84_y": 23.3789731, "city": "guangzhou", "time": 2017, "name_en": "guang zhou bei zhan ", "name_en_2": null, "station_fanti": null }, "geometry": { "type": "Point", "coordinates": [ 113.1961801, 23.3789731 ] } },
{ "type": "Feature", "properties": { "station": "花城路", "line": "line9", "address": "9号线", "x": 113.21274, "y": 23.379622, "wgs84_x": 113.2073691, "wgs84_y": 23.38219289, "city": "guangzhou", "time": 2017, "name_en": "hua cheng lu ", "name_en_2": null, "station_fanti": null }, "geometry": { "type": "Point", "coordinates": [ 113.2073691, 23.38219289 ] } },
{ "type": "Feature", "properties": { "station": "花果山公园", "line": "line9", "address": "9号线", "x": 113.218389, "y": 23.387119, "wgs84_x": 113.2130251, "wgs84_y": 23.38969621, "city": "guangzhou", "time": 2017, "name_en": "hua guo shan gong yuan ", "name_en_2": null, "station_fanti": null }, "geometry": { "type": "Point", "coordinates": [ 113.2130251, 23.38969621 ] } },
{ "type": "Feature", "properties": { "station": "花都广场", "line": "line9", "address": "9号线", "x": 113.222628, "y": 23.401307, "wgs84_x": 113.2172681, "wgs84_y": 23.40388704, "city": "guangzhou", "time": 2017, "name_en": "hua dong guang chang ", "name_en_2": null, "station_fanti": null }, "geometry": { "type": "Point", "coordinates": [ 113.2172681, 23.40388704 ] } },
{ "type": "Feature", "properties": { "station": "马鞍山公园", "line": "line9", "address": "9号线", "x": 113.237846, "y": 23.399699, "wgs84_x": 113.2324993, "wgs84_y": 23.40229306, "city": "guangzhou", "time": 2017, "name_en": "ma an shan gong yuan ", "name_en_2": null, "station_fanti": null }, "geometry": { "type": "Point", "coordinates": [ 113.2324993, 23.40229306 ] } },
{ "type": "Feature", "properties": { "station": "莲塘", "line": "line9", "address": "9号线", "x": 113.245149, "y": 23.389101, "wgs84_x": 113.2398063, "wgs84_y": 23.39170053, "city": "guangzhou", "time": 2017, "name_en": "lian tang ", "name_en_2": null, "station_fanti": null }, "geometry": { "type": "Point", "coordinates": [ 113.2398063, 23.39170053 ] } },
{ "type": "Feature", "properties": { "station": "清布", "line": "line9", "address": "9号线", "x": 113.250989, "y": 23.378122, "wgs84_x": 113.2456481, "wgs84_y": 23.38072503, "city": "guangzhou", "time": 2017, "name_en": "qing bu ", "name_en_2": null, "station_fanti": null }, "geometry": { "type": "Point", "coordinates": [ 113.2456481, 23.38072503 ] } },
{ "type": "Feature", "properties": { "station": "清塘", "line": "line9", "address": "9号线", "x": 113.262858, "y": 23.372206, "wgs84_x": 113.2575155, "wgs84_y": 23.37480932, "city": "guangzhou", "time": 2018, "name_en": "qing tang ", "name_en_2": null, "station_fanti": null }, "geometry": { "type": "Point", "coordinates": [ 113.2575155, 23.37480932 ] } },
{ "type": "Feature", "properties": { "station": "裕丰围", "line": "line13", "address": "(在建)7号线二期;13号线", "x": 113.455011, "y": 23.094934, "wgs84_x": 113.4495486, "wgs84_y": 23.09749057, "city": "guangzhou", "time": 2017, "name_en": "yu feng wei ", "name_en_2": null, "station_fanti": null }, "geometry": { "type": "Point", "coordinates": [ 113.4495486, 23.09749057 ] } },
{ "type": "Feature", "properties": { "station": "双岗", "line": "line13", "address": "(在建)5号线东延段;13号线", "x": 113.474331, "y": 23.094468, "wgs84_x": 113.4689216, "wgs84_y": 23.0970702, "city": "guangzhou", "time": 2017, "name_en": "shuang gang ", "name_en_2": null, "station_fanti": null }, "geometry": { "type": "Point", "coordinates": [ 113.4689216, 23.0970702 ] } },
{ "type": "Feature", "properties": { "station": "南海神庙", "line": "line13", "address": "13号线", "x": 113.497434, "y": 23.083718, "wgs84_x": 113.4921018, "wgs84_y": 23.08639058, "city": "guangzhou", "time": 2017, "name_en": "nan hai shen miao ", "name_en_2": null, "station_fanti": null }, "geometry": { "type": "Point", "coordinates": [ 113.4921018, 23.08639058 ] } },
{ "type": "Feature", "properties": { "station": "夏园", "line": "line13", "address": "(在建)5号线东延段;13号线", "x": 113.518376, "y": 23.082901, "wgs84_x": 113.5131175, "wgs84_y": 23.08563694, "city": "guangzhou", "time": 2017, "name_en": "xia yuan ", "name_en_2": null, "station_fanti": null }, "geometry": { "type": "Point", "coordinates": [ 113.5131175, 23.08563694 ] } },
{ "type": "Feature", "properties": { "station": "南岗", "line": "line13", "address": "13号线", "x": 113.541486, "y": 23.09528, "wgs84_x": 113.5363024, "wgs84_y": 23.09807452, "city": "guangzhou", "time": 2017, "name_en": "nan gang ", "name_en_2": null, "station_fanti": null }, "geometry": { "type": "Point", "coordinates": [ 113.5363024, 23.09807452 ] } },
{ "type": "Feature", "properties": { "station": "沙村", "line": "line13", "address": "13号线", "x": 113.570399, "y": 23.11059, "wgs84_x": 113.5652866, "wgs84_y": 23.11343614, "city": "guangzhou", "time": 2017, "name_en": "sha cun ", "name_en_2": null, "station_fanti": null }, "geometry": { "type": "Point", "coordinates": [ 113.5652866, 23.11343614 ] } },
{ "type": "Feature", "properties": { "station": "白江", "line": "line13", "address": "13号线", "x": 113.595627, "y": 23.123235, "wgs84_x": 113.5905475, "wgs84_y": 23.12609843, "city": "guangzhou", "time": 2017, "name_en": "bai jiang ", "name_en_2": null, "station_fanti": null }, "geometry": { "type": "Point", "coordinates": [ 113.5905475, 23.12609843 ] } },
{ "type": "Feature", "properties": { "station": "新塘", "line": "line13", "address": "13号线", "x": 113.604472, "y": 23.131731, "wgs84_x": 113.5993966, "wgs84_y": 23.13459212, "city": "guangzhou", "time": 2017, "name_en": "xin tang ", "name_en_2": null, "station_fanti": null }, "geometry": { "type": "Point", "coordinates": [ 113.5993966, 23.13459212 ] } },
{ "type": "Feature", "properties": { "station": "官湖", "line": "line13", "address": "13号线", "x": 113.636569, "y": 23.137226, "wgs84_x": 113.6314821, "wgs84_y": 23.14006203, "city": "guangzhou", "time": 2017, "name_en": "guan hu ", "name_en_2": null, "station_fanti": null }, "geometry": { "type": "Point", "coordinates": [ 113.6314821, 23.14006203 ] } },
{ "type": "Feature", "properties": { "station": "新沙", "line": "line13", "address": "13号线", "x": 113.649417, "y": 23.136863, "wgs84_x": 113.6443157, "wgs84_y": 23.13968049, "city": "guangzhou", "time": 2017, "name_en": "xin sha ", "name_en_2": null, "station_fanti": null }, "geometry": { "type": "Point", "coordinates": [ 113.6443157, 23.13968049 ] } },
{ "type": "Feature", "properties": { "station": "白云东平", "line": "line14", "address": "14号线", "x": 113.317841, "y": 23.25117, "wgs84_x": 113.3124343, "wgs84_y": 23.25373988, "city": "guangzhou", "time": 2018, "name_en": "bai yun dong ping ", "name_en_2": null, "station_fanti": null }, "geometry": { "type": "Point", "coordinates": [ 113.3124343, 23.25373988 ] } },
{ "type": "Feature", "properties": { "station": "夏良", "line": "line14", "address": "14号线", "x": 113.323505, "y": 23.277704, "wgs84_x": 113.3180851, "wgs84_y": 23.2802554, "city": "guangzhou", "time": 2018, "name_en": "xia liang ", "name_en_2": null, "station_fanti": null }, "geometry": { "type": "Point", "coordinates": [ 113.3180851, 23.2802554 ] } },
{ "type": "Feature", "properties": { "station": "太和", "line": "line14", "address": "14号线", "x": 113.347197, "y": 23.299284, "wgs84_x": 113.3417275, "wgs84_y": 23.30178467, "city": "guangzhou", "time": 2018, "name_en": "tai he ", "name_en_2": "Tai Wo", "station_fanti": "太和" }, "geometry": { "type": "Point", "coordinates": [ 113.3417275, 23.30178467 ] } },
{ "type": "Feature", "properties": { "station": "竹料", "line": "line14", "address": "14号线", "x": 113.368332, "y": 23.348496, "wgs84_x": 113.3628218, "wgs84_y": 23.35094951, "city": "guangzhou", "time": 2018, "name_en": "zhu liao ", "name_en_2": null, "station_fanti": null }, "geometry": { "type": "Point", "coordinates": [ 113.3628218, 23.35094951 ] } },
{ "type": "Feature", "properties": { "station": "钟落潭", "line": "line14", "address": "14号线", "x": 113.400686, "y": 23.375649, "wgs84_x": 113.3951443, "wgs84_y": 23.37806738, "city": "guangzhou", "time": 2018, "name_en": "zhong luo tan ", "name_en_2": null, "station_fanti": null }, "geometry": { "type": "Point", "coordinates": [ 113.3951443, 23.37806738 ] } },
{ "type": "Feature", "properties": { "station": "马沥", "line": "line14", "address": "14号线", "x": 113.450388, "y": 23.393877, "wgs84_x": 113.4448945, "wgs84_y": 23.3963315, "city": "guangzhou", "time": 2018, "name_en": "ma li ", "name_en_2": null, "station_fanti": null }, "geometry": { "type": "Point", "coordinates": [ 113.4448945, 23.3963315 ] } },
{ "type": "Feature", "properties": { "station": "太平", "line": "line14", "address": "14号线", "x": 113.491955, "y": 23.45209, "wgs84_x": 113.4865788, "wgs84_y": 23.454641, "city": "guangzhou", "time": 2018, "name_en": "tai ping ", "name_en_2": null, "station_fanti": null }, "geometry": { "type": "Point", "coordinates": [ 113.4865788, 23.454641 ] } },
{ "type": "Feature", "properties": { "station": "神岗", "line": "line14", "address": "14号线", "x": 113.517396, "y": 23.475101, "wgs84_x": 113.5121076, "wgs84_y": 23.47772667, "city": "guangzhou", "time": 2018, "name_en": "shen gang ", "name_en_2": null, "station_fanti": null }, "geometry": { "type": "Point", "coordinates": [ 113.5121076, 23.47772667 ] } },
{ "type": "Feature", "properties": { "station": "赤草", "line": "line14", "address": "14号线", "x": 113.560204, "y": 23.501199, "wgs84_x": 113.5550439, "wgs84_y": 23.50393122, "city": "guangzhou", "time": 2018, "name_en": "chi cao ", "name_en_2": null, "station_fanti": null }, "geometry": { "type": "Point", "coordinates": [ 113.5550439, 23.50393122 ] } },
{ "type": "Feature", "properties": { "station": "从化客运站", "line": "line14", "address": "14号线", "x": 113.594721, "y": 23.531769, "wgs84_x": 113.5896138, "wgs84_y": 23.53453997, "city": "guangzhou", "time": 2018, "name_en": "cong hua ke yun zhan ", "name_en_2": null, "station_fanti": null }, "geometry": { "type": "Point", "coordinates": [ 113.5896138, 23.53453997 ] } },
{ "type": "Feature", "properties": { "station": "东风", "line": "line14", "address": "14号线", "x": 113.600801, "y": 23.566233, "wgs84_x": 113.5956953, "wgs84_y": 23.56900647, "city": "guangzhou", "time": 2018, "name_en": "dong feng ", "name_en_2": null, "station_fanti": null }, "geometry": { "type": "Point", "coordinates": [ 113.5956953, 23.56900647 ] } },
{ "type": "Feature", "properties": { "station": "新和", "line": "line14_支", "address": "14号线;14号线支线/知识城线", "x": 113.46706, "y": 23.413259, "wgs84_x": 113.4616073, "wgs84_y": 23.41574653, "city": "guangzhou", "time": 2017, "name_en": "xin he ", "name_en_2": null, "station_fanti": null }, "geometry": { "type": "Point", "coordinates": [ 113.4616073, 23.41574653 ] } },
{ "type": "Feature", "properties": { "station": "红卫", "line": "line14_支", "address": "14号线支线/知识城线", "x": 113.487415, "y": 23.399261, "wgs84_x": 113.4820269, "wgs84_y": 23.40180535, "city": "guangzhou", "time": 2017, "name_en": "hong wei ", "name_en_2": null, "station_fanti": null }, "geometry": { "type": "Point", "coordinates": [ 113.4820269, 23.40180535 ] } },
{ "type": "Feature", "properties": { "station": "新南", "line": "line14_支", "address": "14号线支线/知识城线", "x": 113.495228, "y": 23.377232, "wgs84_x": 113.4898682, "wgs84_y": 23.37980312, "city": "guangzhou", "time": 2017, "name_en": "xin nan ", "name_en_2": null, "station_fanti": null }, "geometry": { "type": "Point", "coordinates": [ 113.4898682, 23.37980312 ] } },
{ "type": "Feature", "properties": { "station": "枫下", "line": "line14_支", "address": "14号线支线/知识城线", "x": 113.508322, "y": 23.363059, "wgs84_x": 113.5030093, "wgs84_y": 23.36567234, "city": "guangzhou", "time": 2017, "name_en": "feng xia ", "name_en_2": null, "station_fanti": null }, "geometry": { "type": "Point", "coordinates": [ 113.5030093, 23.36567234 ] } },
{ "type": "Feature", "properties": { "station": "知识城", "line": "line14_支", "address": "14号线支线/知识城线", "x": 113.525198, "y": 23.349377, "wgs84_x": 113.519945, "wgs84_y": 23.3520432, "city": "guangzhou", "time": 2017, "name_en": "zhi shi cheng ", "name_en_2": null, "station_fanti": null }, "geometry": { "type": "Point", "coordinates": [ 113.519945, 23.3520432 ] } },
{ "type": "Feature", "properties": { "station": "何棠下", "line": "line14_支", "address": "14号线支线/知识城线", "x": 113.543688, "y": 23.33119, "wgs84_x": 113.5384952, "wgs84_y": 23.33390963, "city": "guangzhou", "time": 2017, "name_en": "he tang xia ", "name_en_2": null, "station_fanti": null }, "geometry": { "type": "Point", "coordinates": [ 113.5384952, 23.33390963 ] } },
{ "type": "Feature", "properties": { "station": "旺村", "line": "line14_支", "address": "14号线支线/知识城线", "x": 113.551749, "y": 23.323256, "wgs84_x": 113.5465795, "wgs84_y": 23.32599611, "city": "guangzhou", "time": 2017, "name_en": "wang cun ", "name_en_2": null, "station_fanti": null }, "geometry": { "type": "Point", "coordinates": [ 113.5465795, 23.32599611 ] } },
{ "type": "Feature", "properties": { "station": "汤村", "line": "line14_支", "address": "14号线支线/知识城线", "x": 113.564686, "y": 23.307382, "wgs84_x": 113.559549, "wgs84_y": 23.31015115, "city": "guangzhou", "time": 2017, "name_en": "tang cun ", "name_en_2": null, "station_fanti": null }, "geometry": { "type": "Point", "coordinates": [ 113.559549, 23.31015115 ] } },
{ "type": "Feature", "properties": { "station": "镇龙北", "line": "line14_支", "address": "14号线支线/知识城线", "x": 113.576945, "y": 23.289584, "wgs84_x": 113.5718324, "wgs84_y": 23.29237546, "city": "guangzhou", "time": 2017, "name_en": "zhen long bei ", "name_en_2": null, "station_fanti": null }, "geometry": { "type": "Point", "coordinates": [ 113.5718324, 23.29237546 ] } },
{ "type": "Feature", "properties": { "station": "镇龙", "line": "line14_支", "address": "14号线支线/知识城线;21号线", "x": 113.593, "y": 23.284514, "wgs84_x": 113.5879077, "wgs84_y": 23.28731979, "city": "guangzhou", "time": 2017, "name_en": "zhen long ", "name_en_2": null, "station_fanti": null }, "geometry": { "type": "Point", "coordinates": [ 113.5879077, 23.28731979 ] } },
{ "type": "Feature", "properties": { "station": "天河公园", "line": "line21", "address": "(在建)11号线内环;(在建)11号线外环;(在建)13号线二期;21号线", "x": 113.362879, "y": 23.125317, "wgs84_x": 113.3573928, "wgs84_y": 23.12785061, "city": "guangzhou", "time": 2019, "name_en": "tian he gong yuan ", "name_en_2": null, "station_fanti": null }, "geometry": { "type": "Point", "coordinates": [ 113.3573928, 23.12785061 ] } },
{ "type": "Feature", "properties": { "station": "棠东", "line": "line21", "address": "21号线", "x": 113.389744, "y": 23.130922, "wgs84_x": 113.3842245, "wgs84_y": 23.13342129, "city": "guangzhou", "time": 2019, "name_en": "tang dong ", "name_en_2": null, "station_fanti": null }, "geometry": { "type": "Point", "coordinates": [ 113.3842245, 23.13342129 ] } },
{ "type": "Feature", "properties": { "station": "大观南路", "line": "line21", "address": "21号线", "x": 113.406947, "y": 23.144575, "wgs84_x": 113.4014208, "wgs84_y": 23.14706203, "city": "guangzhou", "time": 2019, "name_en": "da guan nan lu ", "name_en_2": null, "station_fanti": null }, "geometry": { "type": "Point", "coordinates": [ 113.4014208, 23.14706203 ] } },
{ "type": "Feature", "properties": { "station": "天河智慧城", "line": "line21", "address": "21号线", "x": 113.403184, "y": 23.163275, "wgs84_x": 113.3976566, "wgs84_y": 23.16575522, "city": "guangzhou", "time": 2019, "name_en": "tian he zhi hui cheng ", "name_en_2": null, "station_fanti": null }, "geometry": { "type": "Point", "coordinates": [ 113.3976566, 23.16575522 ] } },
{ "type": "Feature", "properties": { "station": "神舟路", "line": "line21", "address": "21号线", "x": 113.431334, "y": 23.165215, "wgs84_x": 113.425823, "wgs84_y": 23.16770648, "city": "guangzhou", "time": 2019, "name_en": "shen zhou lu ", "name_en_2": null, "station_fanti": null }, "geometry": { "type": "Point", "coordinates": [ 113.425823, 23.16770648 ] } },
{ "type": "Feature", "properties": { "station": "科学城", "line": "line21", "address": "21号线", "x": 113.44925, "y": 23.165651, "wgs84_x": 113.4437698, "wgs84_y": 23.1681682, "city": "guangzhou", "time": 2019, "name_en": "ke xue cheng ", "name_en_2": null, "station_fanti": null }, "geometry": { "type": "Point", "coordinates": [ 113.4437698, 23.1681682 ] } },
{ "type": "Feature", "properties": { "station": "水西", "line": "line21", "address": "(在建)7号线二期;21号线", "x": 113.479492, "y": 23.186954, "wgs84_x": 113.4740924, "wgs84_y": 23.18953365, "city": "guangzhou", "time": 2019, "name_en": "shui xi ", "name_en_2": null, "station_fanti": null }, "geometry": { "type": "Point", "coordinates": [ 113.4740924, 23.18953365 ] } },
{ "type": "Feature", "properties": { "station": "长平", "line": "line21", "address": "21号线", "x": 113.489704, "y": 23.210341, "wgs84_x": 113.4843366, "wgs84_y": 23.21294131, "city": "guangzhou", "time": 2019, "name_en": "chang ping ", "name_en_2": null, "station_fanti": null }, "geometry": { "type": "Point", "coordinates": [ 113.4843366, 23.21294131 ] } },
{ "type": "Feature", "properties": { "station": "金坑", "line": "line21", "address": "21号线", "x": 113.526727, "y": 23.249328, "wgs84_x": 113.5214859, "wgs84_y": 23.25202546, "city": "guangzhou", "time": 2019, "name_en": "jin keng ", "name_en_2": null, "station_fanti": null }, "geometry": { "type": "Point", "coordinates": [ 113.5214859, 23.25202546 ] } },
{ "type": "Feature", "properties": { "station": "镇龙西", "line": "line21", "address": "21号线", "x": 113.573793, "y": 23.278088, "wgs84_x": 113.5686758, "wgs84_y": 23.28087885, "city": "guangzhou", "time": 2018, "name_en": "zhen long xi ", "name_en_2": null, "station_fanti": null }, "geometry": { "type": "Point", "coordinates": [ 113.5686758, 23.28087885 ] } },
{ "type": "Feature", "properties": { "station": "中新", "line": "line21", "address": "21号线", "x": 113.613131, "y": 23.285303, "wgs84_x": 113.6080466, "wgs84_y": 23.28810845, "city": "guangzhou", "time": 2018, "name_en": "zhong xin ", "name_en_2": null, "station_fanti": null }, "geometry": { "type": "Point", "coordinates": [ 113.6080466, 23.28810845 ] } },
{ "type": "Feature", "properties": { "station": "坑贝", "line": "line21", "address": "21号线", "x": 113.642606, "y": 23.278769, "wgs84_x": 113.6375035, "wgs84_y": 23.2815474, "city": "guangzhou", "time": 2018, "name_en": "keng bei ", "name_en_2": null, "station_fanti": null }, "geometry": { "type": "Point", "coordinates": [ 113.6375035, 23.2815474 ] } },
{ "type": "Feature", "properties": { "station": "凤岗", "line": "line21", "address": "21号线", "x": 113.670634, "y": 23.275961, "wgs84_x": 113.6654928, "wgs84_y": 23.27869204, "city": "guangzhou", "time": 2018, "name_en": "feng gang ", "name_en_2": null, "station_fanti": null }, "geometry": { "type": "Point", "coordinates": [ 113.6654928, 23.27869204 ] } },
{ "type": "Feature", "properties": { "station": "朱村", "line": "line21", "address": "21号线", "x": 113.701415, "y": 23.272316, "wgs84_x": 113.6962282, "wgs84_y": 23.27499134, "city": "guangzhou", "time": 2018, "name_en": "zhu cun ", "name_en_2": null, "station_fanti": null }, "geometry": { "type": "Point", "coordinates": [ 113.6962282, 23.27499134 ] } },
{ "type": "Feature", "properties": { "station": "山田", "line": "line21", "address": "21号线", "x": 113.744543, "y": 23.276428, "wgs84_x": 113.7393278, "wgs84_y": 23.27905404, "city": "guangzhou", "time": 2018, "name_en": "shan tian ", "name_en_2": null, "station_fanti": null }, "geometry": { "type": "Point", "coordinates": [ 113.7393278, 23.27905404 ] } },
{ "type": "Feature", "properties": { "station": "钟岗", "line": "line21", "address": "21号线", "x": 113.792047, "y": 23.279317, "wgs84_x": 113.7868843, "wgs84_y": 23.28196439, "city": "guangzhou", "time": 2018, "name_en": "zhong gang ", "name_en_2": null, "station_fanti": null }, "geometry": { "type": "Point", "coordinates": [ 113.7868843, 23.28196439 ] } },
{ "type": "Feature", "properties": { "station": "增城广场", "line": "line21", "address": "21号线", "x": 113.814472, "y": 23.278024, "wgs84_x": 113.8093612, "wgs84_y": 23.2807064, "city": "guangzhou", "time": 2018, "name_en": "zeng cheng guang chang ", "name_en_2": null, "station_fanti": null }, "geometry": { "type": "Point", "coordinates": [ 113.8093612, 23.2807064 ] } },
{ "type": "Feature", "properties": { "station": "体育中心南", "line": "APM", "address": "APM线", "x": 113.324309, "y": 23.134281, "wgs84_x": 113.3188972, "wgs84_y": 23.13688112, "city": "guangzhou", "time": 2010, "name_en": "ti yu zhong xin nan ", "name_en_2": null, "station_fanti": null }, "geometry": { "type": "Point", "coordinates": [ 113.318571557760251, 23.137895620823784 ] } },
{ "type": "Feature", "properties": { "station": "天河南", "line": "APM", "address": "APM线", "x": 113.324479, "y": 23.131384, "wgs84_x": 113.3190671, "wgs84_y": 23.13398495, "city": "guangzhou", "time": 2010, "name_en": "tian he nan ", "name_en_2": null, "station_fanti": null }, "geometry": { "type": "Point", "coordinates": [ 113.318935590633956, 23.133703144215616 ] } },
{ "type": "Feature", "properties": { "station": "黄埔大道", "line": "APM", "address": "APM线", "x": 113.32449, "y": 23.127054, "wgs84_x": 113.3190783, "wgs84_y": 23.12965667, "city": "guangzhou", "time": 2010, "name_en": "huang pu da dao ", "name_en_2": null, "station_fanti": null }, "geometry": { "type": "Point", "coordinates": [ 113.3190783, 23.12965667 ] } },
{ "type": "Feature", "properties": { "station": "妇儿中心", "line": "APM", "address": "APM线", "x": 113.324558, "y": 23.122553, "wgs84_x": 113.3191465, "wgs84_y": 23.12515735, "city": "guangzhou", "time": 2010, "name_en": "fu dong zhong xin ", "name_en_2": null, "station_fanti": null }, "geometry": { "type": "Point", "coordinates": [ 113.3191465, 23.12515735 ] } },
{ "type": "Feature", "properties": { "station": "花城大道", "line": "APM", "address": "APM线", "x": 113.324718, "y": 23.119223, "wgs84_x": 113.3193064, "wgs84_y": 23.1218284, "city": "guangzhou", "time": 2010, "name_en": "hua cheng da dao ", "name_en_2": null, "station_fanti": null }, "geometry": { "type": "Point", "coordinates": [ 113.3193064, 23.1218284 ] } },
{ "type": "Feature", "properties": { "station": "大剧院", "line": "APM", "address": "APM线", "x": 113.32446, "y": 23.116138, "wgs84_x": 113.3190491, "wgs84_y": 23.11874514, "city": "guangzhou", "time": 2010, "name_en": "da ju yuan ", "name_en_2": null, "station_fanti": null }, "geometry": { "type": "Point", "coordinates": [ 113.3190491, 23.11874514 ] } },
{ "type": "Feature", "properties": { "station": "海心沙", "line": "APM", "address": "APM线", "x": 113.324412, "y": 23.111545, "wgs84_x": 113.3190015, "wgs84_y": 23.1141541, "city": "guangzhou", "time": 2010, "name_en": "hai xin sha ", "name_en_2": null, "station_fanti": null }, "geometry": { "type": "Point", "coordinates": [ 113.3190015, 23.1141541 ] } },
{ "type": "Feature", "properties": { "station": "东平", "line": "广佛线", "address": "(在建)3号线;广佛线", "x": 113.12919, "y": 22.965266, "wgs84_x": 113.1237127, "wgs84_y": 22.96784444, "city": "guangzhou", "time": 2022, "name_en": "dong ping ", "name_en_2": null, "station_fanti": null }, "geometry": { "type": "Point", "coordinates": [ 113.1237127, 22.96784444 ] } },
{ "type": "Feature", "properties": { "station": "桂城", "line": "广佛线", "address": "(在建)3号线;广佛线", "x": 113.141432, "y": 23.031674, "wgs84_x": 113.1359636, "wgs84_y": 23.03423868, "city": "guangzhou", "time": 2010, "name_en": "gui cheng ", "name_en_2": null, "station_fanti": null }, "geometry": { "type": "Point", "coordinates": [ 113.1359636, 23.03423868 ] } },
{ "type": "Feature", "properties": { "station": "金融高新区", "line": "广佛线", "address": "广佛线", "x": 113.158548, "y": 23.065814, "wgs84_x": 113.1531034, "wgs84_y": 23.06839137, "city": "guangzhou", "time": 2010, "name_en": "jin rong gao xin qu ", "name_en_2": null, "station_fanti": null }, "geometry": { "type": "Point", "coordinates": [ 113.1531034, 23.06839137 ] } },
{ "type": "Feature", "properties": { "station": "龙溪", "line": "广佛线", "address": "广佛线", "x": 113.192391, "y": 23.066029, "wgs84_x": 113.1870083, "wgs84_y": 23.06866916, "city": "guangzhou", "time": 2010, "name_en": "long xi ", "name_en_2": null, "station_fanti": null }, "geometry": { "type": "Point", "coordinates": [ 113.1870083, 23.06866916 ] } },
{ "type": "Feature", "properties": { "station": "菊树", "line": "广佛线", "address": "广佛线", "x": 113.212863, "y": 23.065868, "wgs84_x": 113.2075134, "wgs84_y": 23.06854178, "city": "guangzhou", "time": 2010, "name_en": "ju shu ", "name_en_2": null, "station_fanti": null }, "geometry": { "type": "Point", "coordinates": [ 113.2075134, 23.06854178 ] } },
{ "type": "Feature", "properties": { "station": "鹤洞", "line": "广佛线", "address": "广佛线", "x": 113.240153, "y": 23.072495, "wgs84_x": 113.2348296, "wgs84_y": 23.07519374, "city": "guangzhou", "time": 2015, "name_en": "he dong ", "name_en_2": null, "station_fanti": null }, "geometry": { "type": "Point", "coordinates": [ 113.2348296, 23.07519374 ] } },
{ "type": "Feature", "properties": { "station": "沙涌", "line": "广佛线", "address": "(在建)11号线内环;(在建)11号线外环;广佛线", "x": 113.246772, "y": 23.083128, "wgs84_x": 113.2414503, "wgs84_y": 23.08582517, "city": "guangzhou", "time": 2015, "name_en": "sha yong ", "name_en_2": null, "station_fanti": null }, "geometry": { "type": "Point", "coordinates": [ 113.2414503, 23.08582517 ] } },
{ "type": "Feature", "properties": { "station": "沙园", "line": "广佛线", "address": "8号线;广佛线", "x": 113.260584, "y": 23.088625, "wgs84_x": 113.2552614, "wgs84_y": 23.09132063, "city": "guangzhou", "time": 2015, "name_en": "sha yuan ", "name_en_2": null, "station_fanti": null }, "geometry": { "type": "Point", "coordinates": [ 113.2552614, 23.09132063 ] } },
{ "type": "Feature", "properties": { "station": "燕岗", "line": "广佛线", "address": "(在建)11号线内环;(在建)11号线外环;广佛线", "x": 113.271988, "y": 23.075142, "wgs84_x": 113.2666602, "wgs84_y": 23.0778385, "city": "guangzhou", "time": 2015, "name_en": "yan gang ", "name_en_2": null, "station_fanti": null }, "geometry": { "type": "Point", "coordinates": [ 113.2666602, 23.0778385 ] } },
{ "type": "Feature", "properties": { "station": "石溪", "line": "广佛线", "address": "(在建)10号线;广佛线", "x": 113.285951, "y": 23.067937, "wgs84_x": 113.2806097, "wgs84_y": 23.0706244, "city": "guangzhou", "time": 2018, "name_en": "shi xi ", "name_en_2": null, "station_fanti": null }, "geometry": { "type": "Point", "coordinates": [ 113.2806097, 23.0706244 ] } },
{ "type": "Feature", "properties": { "station": "滘心", "line": "line8北延段", "address": "(在建)8号线北延线", "x": 113.217744, "y": 23.234491, "wgs84_x": 113.2123896, "wgs84_y": 23.2371064, "city": "guangzhou", "time": 2020, "name_en": "Jiaoxin ", "name_en_2": null, "station_fanti": null }, "geometry": { "type": "Point", "coordinates": [ 113.2123896, 23.2371064 ] } },
{ "type": "Feature", "properties": { "station": "亭岗", "line": "line8北延段", "address": "(在建)8号线北延线", "x": 113.220072, "y": 23.222374, "wgs84_x": 113.2147213, "wgs84_y": 23.22499639, "city": "guangzhou", "time": 2020, "name_en": "ting gang ", "name_en_2": null, "station_fanti": null }, "geometry": { "type": "Point", "coordinates": [ 113.2147213, 23.22499639 ] } },
{ "type": "Feature", "properties": { "station": "石井", "line": "line8北延段", "address": "(在建)8号线北延线", "x": 113.231342, "y": 23.211313, "wgs84_x": 113.2260034, "wgs84_y": 23.21395108, "city": "guangzhou", "time": 2020, "name_en": "shi jing ", "name_en_2": null, "station_fanti": null }, "geometry": { "type": "Point", "coordinates": [ 113.2260034, 23.21395108 ] } },
{ "type": "Feature", "properties": { "station": "小坪", "line": "line8北延段", "address": "(在建)8号线北延线", "x": 113.243165, "y": 23.201101, "wgs84_x": 113.2378343, "wgs84_y": 23.20375053, "city": "guangzhou", "time": 2020, "name_en": "xiao ping ", "name_en_2": null, "station_fanti": null }, "geometry": { "type": "Point", "coordinates": [ 113.2378343, 23.20375053 ] } },
{ "type": "Feature", "properties": { "station": "石潭", "line": "line8北延段", "address": "(在建)8号线北延线", "x": 113.241396, "y": 23.188649, "wgs84_x": 113.2360654, "wgs84_y": 23.19130217, "city": "guangzhou", "time": 2020, "name_en": "shi tan ", "name_en_2": null, "station_fanti": null }, "geometry": { "type": "Point", "coordinates": [ 113.2360654, 23.19130217 ] } },
{ "type": "Feature", "properties": { "station": "聚龙", "line": "line8北延段", "address": "(在建)12号线;(在建)8号线北延线", "x": 113.238714, "y": 23.181094, "wgs84_x": 113.2333825, "wgs84_y": 23.18374844, "city": "guangzhou", "time": 2020, "name_en": "ju long ", "name_en_2": null, "station_fanti": null }, "geometry": { "type": "Point", "coordinates": [ 113.2333825, 23.18374844 ] } },
{ "type": "Feature", "properties": { "station": "上步", "line": "line8北延段", "address": "(在建)8号线北延线", "x": 113.235704, "y": 23.170899, "wgs84_x": 113.2303714, "wgs84_y": 23.17355524, "city": "guangzhou", "time": 2020, "name_en": "shang bu ", "name_en_2": null, "station_fanti": null }, "geometry": { "type": "Point", "coordinates": [ 113.2303714, 23.17355524 ] } },
{ "type": "Feature", "properties": { "station": "同德", "line": "line8北延段", "address": "(在建)8号线北延线", "x": 113.23476, "y": 23.163649, "wgs84_x": 113.2294272, "wgs84_y": 23.1663073, "city": "guangzhou", "time": 2020, "name_en": "tong de ", "name_en_2": null, "station_fanti": null }, "geometry": { "type": "Point", "coordinates": [ 113.2294272, 23.1663073 ] } },
{ "type": "Feature", "properties": { "station": "鹅掌坦", "line": "line8北延段", "address": "(在建)8号线北延线", "x": 113.235859, "y": 23.156599, "wgs84_x": 113.2305275, "wgs84_y": 23.15926081, "city": "guangzhou", "time": 2020, "name_en": "dong zhang tan ", "name_en_2": null, "station_fanti": null }, "geometry": { "type": "Point", "coordinates": [ 113.2305275, 23.15926081 ] } },
{ "type": "Feature", "properties": { "station": "彩虹桥", "line": "line8北延段", "address": "(在建)11号线内环;(在建)11号线外环;(在建)13号线二期;(在建)8号线北延线", "x": 113.245594, "y": 23.134694, "wgs84_x": 113.2402685, "wgs84_y": 23.13736965, "city": "guangzhou", "time": 2020, "name_en": "cai hong qiao ", "name_en_2": null, "station_fanti": null }, "geometry": { "type": "Point", "coordinates": [ 113.2402685, 23.13736965 ] } },
{ "type": "Feature", "properties": { "station": "华林寺", "line": "line8北延段", "address": "(在建)8号线北延线", "x": 113.24716, "y": 23.117843, "wgs84_x": 113.2418361, "wgs84_y": 23.12052595, "city": "guangzhou", "time": 2020, "name_en": "hua lin si ", "name_en_2": null, "station_fanti": null }, "geometry": { "type": "Point", "coordinates": [ 113.2418361, 23.12052595 ] } },
{ "type": "Feature", "properties": { "station": "横沥", "line": "line18", "address": null, "x": null, "y": null, "wgs84_x": null, "wgs84_y": null, "city": "guangzhou", "time": 2021, "name_en": "heng li ", "name_en_2": null, "station_fanti": null }, "geometry": { "type": "Point", "coordinates": [ 113.5064236, 22.7560733 ] } },
{ "type": "Feature", "properties": { "station": "万顷沙", "line": "line18", "address": "万顷沙站（英文名：WanQingsha Station）是一座位于广东省广州市南沙区，属于广州地铁18号线的一座地铁车站，未来可与广州地铁15号线换乘", "x": null, "y": null, "wgs84_x": null, "wgs84_y": null, "city": "guangzhou", "time": 2021, "name_en": "wan qing sha ", "name_en_2": null, "station_fanti": null }, "geometry": { "type": "Point", "coordinates": [ 113.5519154, 22.7014202 ] } },
{ "type": "Feature", "properties": { "station": "冼村", "line": "line18", "address": null, "x": null, "y": null, "wgs84_x": null, "wgs84_y": null, "city": "guangzhou", "time": 2021, "name_en": "Xiancun ", "name_en_2": null, "station_fanti": null }, "geometry": { "type": "Point", "coordinates": [ 113.3228445, 23.1284496 ] } },
{ "type": "Feature", "properties": { "station": "龙潭", "line": "line18", "address": "", "x": null, "y": null, "wgs84_x": null, "wgs84_y": null, "city": "guangzhou", "time": 2021, "name_en": "long tan ", "name_en_2": null, "station_fanti": null }, "geometry": { "type": "Point", "coordinates": [ 113.3355735, 23.0827375 ] } },
{ "type": "Feature", "properties": { "station": "沙溪", "line": "line18", "address": null, "x": null, "y": null, "wgs84_x": null, "wgs84_y": null, "city": "guangzhou", "time": 2021, "name_en": "sha xi ", "name_en_2": null, "station_fanti": null }, "geometry": { "type": "Point", "coordinates": [ 113.3330404, 23.0392856 ] } },
{ "type": "Feature", "properties": { "station": "番禺广场", "line": "line18", "address": "番禺广场站于2006年12月30日通行广州地铁3号线，于2021年9月28日通行广州地铁18号线，于2022年3月31日通行广州地铁22号线 [4-5]。", "x": null, "y": null, "wgs84_x": null, "wgs84_y": null, "city": "guangzhou", "time": 2006, "name_en": "Panyu square", "name_en_2": null, "station_fanti": null }, "geometry": { "type": "Point", "coordinates": [ 113.378280542044649, 22.938250872320165 ] } },
{ "type": "Feature", "properties": { "station": "市广路", "line": "line22", "address": null, "x": null, "y": null, "wgs84_x": null, "wgs84_y": null, "city": "guangzhou", "time": 2022, "name_en": "shi guang lu ", "name_en_2": null, "station_fanti": null }, "geometry": { "type": "Point", "coordinates": [ 113.3318043, 22.9740302 ] } },
{ "type": "Feature", "properties": { "station": "陈头岗", "line": null, "address": null, "x": null, "y": null, "wgs84_x": null, "wgs84_y": null, "city": "guangzhou", "time": 2022, "name_en": "chen tou gang ", "name_en_2": null, "station_fanti": null }, "geometry": { "type": "Point", "coordinates": [ 113.2605701, 23.0162194 ] } },
{ "type": "Feature", "properties": { "station": "大洲", "line": null, "address": null, "x": null, "y": null, "wgs84_x": null, "wgs84_y": null, "city": "guangzhou", "time": 2022, "name_en": "da zhou ", "name_en_2": null, "station_fanti": null }, "geometry": { "type": "Point", "coordinates": [ 113.2520012, 22.9865903 ] } },
{ "type": "Feature", "properties": { "station": "美孚", "line": "屯马线;荃湾线", "address": "屯马线;荃湾线", "x": null, "y": null, "wgs84_x": 114.1377789, "wgs84_y": 114.1377789, "city": "Hongkong", "time": 1982, "name_en": "Mei Foo", "name_en_2": "Mei Foo", "station_fanti": "美孚" }, "geometry": { "type": "Point", "coordinates": [ 114.1377789, 22.33789141 ] } },
{ "type": "Feature", "properties": { "station": "何文田", "line": "屯马线;观塘线", "address": "屯马线;观塘线", "x": null, "y": null, "wgs84_x": 114.1826224, "wgs84_y": 114.1826224, "city": "Hongkong", "time": 2016, "name_en": "Ho Man Tin", "name_en_2": "Ho Man Tin", "station_fanti": "何文田" }, "geometry": { "type": "Point", "coordinates": [ 114.1826224, 22.30932214 ] } },
{ "type": "Feature", "properties": { "station": "钻石山", "line": "屯马线;观塘线", "address": "屯马线;观塘线", "x": null, "y": null, "wgs84_x": 114.2013458, "wgs84_y": 114.2013458, "city": "Hongkong", "time": 1979, "name_en": "Diamond Hill", "name_en_2": "Diamond Hill", "station_fanti": "鑽石山" },